{"type": "FeatureCollection", "features": [{"type": "Feature", "properties": {"name": "\u1ecc\u0300y\u1ecd\u0301", "place": "city", "osm_layer": "settlements"}, "geometry": {"type": "Point", "coordinates": [3.9315363, 7.8410537]}}, {"type": "Feature", "properties": {"name": "Ogbomosho", "place": "city", "osm_layer": "settlements"}, "geometry": {"type": "Point", "coordinates": [4.25, 8.133]}}, {"type": "Feature", "properties": {"name": "Port Harcourt", "place": "city", "osm_layer": "settlements"}, "geometry": {"type": "Point", "coordinates": [7.0188527, 4.7676576]}}, {"type": "Feature", "properties": {"name": "\u00ccb\u00e0d\u00e0n", "place": "city", "osm_layer": "settlements"}, "geometry": {"type": "Point", "coordinates": [3.8969928, 7.3786064]}}, {"type": "Feature", "properties": {"name": "\u00ccl\u1ecdrin", "place": "city", "osm_layer": "settlements"}, "geometry": {"type": "Point", "coordinates": [4.5480484, 8.4963657]}}, {"type": "Feature", "properties": {"name": "Kaduna", "place": "city", "osm_layer": "settlements"}, "geometry": {"type": "Point", "coordinates": [7.4359863, 10.5182899]}}, {"type": "Feature", "properties": {"name": "Enugu", "place": "city", "osm_layer": "settlements"}, "geometry": {"type": "Point", "coordinates": [7.5136856, 6.4496519]}}, {"type": "Feature", "properties": {"name": "Abeokuta", "place": "city", "osm_layer": "settlements"}, "geometry": {"type": "Point", "coordinates": [3.348, 7.161]}}, {"type": "Feature", "properties": {"name": "Maiduguri", "place": "city", "osm_layer": "settlements"}, "geometry": {"type": "Point", "coordinates": [13.1536214, 11.8395375]}}, {"type": "Feature", "properties": {"name": "Lagos", "place": "city", "osm_layer": "settlements"}, "geometry": {"type": "Point", "coordinates": [3.3941795, 6.4550575]}}, {"type": "Feature", "properties": {"name": "Abuja", "place": "city", "osm_layer": "settlements"}, "geometry": {"type": "Point", "coordinates": [7.4892974, 9.0643305]}}, {"type": "Feature", "properties": {"name": null, "place": "village", "osm_layer": "settlements"}, "geometry": {"type": "Point", "coordinates": [7.303316, 8.9384304]}}, {"type": "Feature", "properties": {"name": "Yenagoa", "place": "city", "osm_layer": "settlements"}, "geometry": {"type": "Point", "coordinates": [6.2747786, 4.9334651]}}, {"type": "Feature", "properties": {"name": "Calabar", "place": "city", "osm_layer": "settlements"}, "geometry": {"type": "Point", "coordinates": [8.3373597, 4.9795999]}}, {"type": "Feature", "properties": {"name": "Potiskum", "place": "city", "osm_layer": "settlements"}, "geometry": {"type": "Point", "coordinates": [11.0762744, 11.7122553]}}, {"type": "Feature", "properties": {"name": "Bauchi", "place": "city", "osm_layer": "settlements"}, "geometry": {"type": "Point", "coordinates": [9.8454417, 10.3147618]}}, {"type": "Feature", "properties": {"name": "Jalingo", "place": "city", "osm_layer": "settlements"}, "geometry": {"type": "Point", "coordinates": [11.360042, 8.894985]}}, {"type": "Feature", "properties": {"name": "Makurdi", "place": "city", "osm_layer": "settlements"}, "geometry": {"type": "Point", "coordinates": [8.538425, 7.7312634]}}, {"type": "Feature", "properties": {"name": "Akugba", "place": "town", "osm_layer": "settlements"}, "geometry": {"type": "Point", "coordinates": [5.7330592, 7.4617211]}}, {"type": "Feature", "properties": {"name": "Akwanga", "place": "town", "osm_layer": "settlements"}, "geometry": {"type": "Point", "coordinates": [8.4080322, 8.9112888]}}, {"type": "Feature", "properties": {"name": "Lafia", "place": "city", "osm_layer": "settlements"}, "geometry": {"type": "Point", "coordinates": [8.5147636, 8.4960459]}}, {"type": "Feature", "properties": {"name": "Nagazi", "place": "town", "osm_layer": "settlements"}, "geometry": {"type": "Point", "coordinates": [6.2317518, 7.5981262]}}, {"type": "Feature", "properties": {"name": "Ikole", "place": "town", "osm_layer": "settlements"}, "geometry": {"type": "Point", "coordinates": [5.5050471, 7.7888484]}}, {"type": "Feature", "properties": {"name": "Ijan", "place": "town", "osm_layer": "settlements"}, "geometry": {"type": "Point", "coordinates": [5.3919351, 7.6220257]}}, {"type": "Feature", "properties": {"name": "Koi", "place": "town", "osm_layer": "settlements"}, "geometry": {"type": "Point", "coordinates": [8.0105654, 9.4536181]}}, {"type": "Feature", "properties": {"name": "Dutsen Alhaji", "place": "town", "osm_layer": "settlements"}, "geometry": {"type": "Point", "coordinates": [7.3726609, 9.1399589]}}, {"type": "Feature", "properties": {"name": "Saki", "place": "town", "osm_layer": "settlements"}, "geometry": {"type": "Point", "coordinates": [3.397191, 8.6742435]}}, {"type": "Feature", "properties": {"name": "Wuya", "place": "town", "osm_layer": "settlements"}, "geometry": {"type": "Point", "coordinates": [5.8227761, 9.1392964]}}, {"type": "Feature", "properties": {"name": "Dutsen", "place": "village", "osm_layer": "settlements"}, "geometry": {"type": "Point", "coordinates": [8.2036892, 10.8415156]}}, {"type": "Feature", "properties": {"name": "Soba", "place": "village", "osm_layer": "settlements"}, "geometry": {"type": "Point", "coordinates": [8.0588025, 10.9832503]}}, {"type": "Feature", "properties": {"name": "Kaura-Namoda", "place": "town", "osm_layer": "settlements"}, "geometry": {"type": "Point", "coordinates": [6.5860718, 12.5941248]}}, {"type": "Feature", "properties": {"name": "Kan Rafi", "place": "village", "osm_layer": "settlements"}, "geometry": {"type": "Point", "coordinates": [7.6163549, 10.6000393]}}, {"type": "Feature", "properties": {"name": null, "place": "hamlet", "osm_layer": "settlements"}, "geometry": {"type": "Point", "coordinates": [7.6095571, 10.5834103]}}, {"type": "Feature", "properties": {"name": null, "place": "hamlet", "osm_layer": "settlements"}, "geometry": {"type": "Point", "coordinates": [7.5725812, 10.5962597]}}, {"type": "Feature", "properties": {"name": null, "place": "village", "osm_layer": "settlements"}, "geometry": {"type": "Point", "coordinates": [6.921478, 11.958171]}}, {"type": "Feature", "properties": {"name": null, "place": "village", "osm_layer": "settlements"}, "geometry": {"type": "Point", "coordinates": [7.4604947, 11.2551355]}}, {"type": "Feature", "properties": {"name": null, "place": "village", "osm_layer": "settlements"}, "geometry": {"type": "Point", "coordinates": [7.3410184, 11.3611827]}}, {"type": "Feature", "properties": {"name": "Damasak", "place": "town", "osm_layer": "settlements"}, "geometry": {"type": "Point", "coordinates": [12.5106188, 13.1039982]}}, {"type": "Feature", "properties": {"name": "Gajiram", "place": "town", "osm_layer": "settlements"}, "geometry": {"type": "Point", "coordinates": [13.2122, 12.4911]}}, {"type": "Feature", "properties": {"name": "Kukawa", "place": "town", "osm_layer": "settlements"}, "geometry": {"type": "Point", "coordinates": [13.566168, 12.924753]}}, {"type": "Feature", "properties": {"name": "Dakingari", "place": "town", "osm_layer": "settlements"}, "geometry": {"type": "Point", "coordinates": [4.0615253, 11.6449942]}}, {"type": "Feature", "properties": {"name": "Kaingiwa", "place": "town", "osm_layer": "settlements"}, "geometry": {"type": "Point", "coordinates": [3.8175265, 12.5533464]}}, {"type": "Feature", "properties": {"name": "Kaita", "place": "town", "osm_layer": "settlements"}, "geometry": {"type": "Point", "coordinates": [7.7409715, 13.0843917]}}, {"type": "Feature", "properties": {"name": "Machina", "place": "town", "osm_layer": "settlements"}, "geometry": {"type": "Point", "coordinates": [10.0491736, 13.1366163]}}, {"type": "Feature", "properties": {"name": "Gumsi", "place": "village", "osm_layer": "settlements"}, "geometry": {"type": "Point", "coordinates": [10.2561043, 13.1721811]}}, {"type": "Feature", "properties": {"name": "Dan Mani", "place": "village", "osm_layer": "settlements"}, "geometry": {"type": "Point", "coordinates": [6.7100475, 13.2994823]}}, {"type": "Feature", "properties": {"name": "Souloulou", "place": "village", "osm_layer": "settlements"}, "geometry": {"type": "Point", "coordinates": [6.4159565, 13.6132968]}}, {"type": "Feature", "properties": {"name": "Kourouma-Batiaka", "place": "village", "osm_layer": "settlements"}, "geometry": {"type": "Point", "coordinates": [6.2945271, 13.6731178]}}, {"type": "Feature", "properties": {"name": "Guesk\u00e9rou", "place": "village", "osm_layer": "settlements"}, "geometry": {"type": "Point", "coordinates": [12.8429613, 13.4796]}}, {"type": "Feature", "properties": {"name": "Dabalya", "place": "village", "osm_layer": "settlements"}, "geometry": {"type": "Point", "coordinates": [10.9347974, 13.4072681]}}, {"type": "Feature", "properties": {"name": null, "place": "hamlet", "osm_layer": "settlements"}, "geometry": {"type": "Point", "coordinates": [7.4023564, 10.5668565]}}, {"type": "Feature", "properties": {"name": "Koundoukoundou", "place": "village", "osm_layer": "settlements"}, "geometry": {"type": "Point", "coordinates": [13.9748922, 13.178641]}}, {"type": "Feature", "properties": {"name": "Dol\u00e9", "place": "village", "osm_layer": "settlements"}, "geometry": {"type": "Point", "coordinates": [3.629338, 11.7124512]}}, {"type": "Feature", "properties": {"name": "Souraka", "place": "village", "osm_layer": "settlements"}, "geometry": {"type": "Point", "coordinates": [4.1378823, 13.4738033]}}, {"type": "Feature", "properties": {"name": "Guidan Samni", "place": "village", "osm_layer": "settlements"}, "geometry": {"type": "Point", "coordinates": [6.0013749, 13.7072067]}}, {"type": "Feature", "properties": {"name": "Guidan Kara", "place": "village", "osm_layer": "settlements"}, "geometry": {"type": "Point", "coordinates": [5.8558853, 13.7562724]}}, {"type": "Feature", "properties": {"name": "Biguel Kankoura", "place": "village", "osm_layer": "settlements"}, "geometry": {"type": "Point", "coordinates": [5.7002256, 13.8199532]}}, {"type": "Feature", "properties": {"name": "Guidan Barao", "place": "village", "osm_layer": "settlements"}, "geometry": {"type": "Point", "coordinates": [5.5141294, 13.8877645]}}, {"type": "Feature", "properties": {"name": "Gounki Arjika", "place": "village", "osm_layer": "settlements"}, "geometry": {"type": "Point", "coordinates": [3.6556014, 12.2511128]}}, {"type": "Feature", "properties": {"name": "Goulay", "place": "village", "osm_layer": "settlements"}, "geometry": {"type": "Point", "coordinates": [13.2488249, 13.5984806]}}, {"type": "Feature", "properties": {"name": "Balifolo", "place": "village", "osm_layer": "settlements"}, "geometry": {"type": "Point", "coordinates": [3.6515342, 12.5167295]}}, {"type": "Feature", "properties": {"name": "Djima Djimi", "place": "village", "osm_layer": "settlements"}, "geometry": {"type": "Point", "coordinates": [4.7173297, 13.7499422]}}, {"type": "Feature", "properties": {"name": "Dantika", "place": "village", "osm_layer": "settlements"}, "geometry": {"type": "Point", "coordinates": [6.6699112, 13.3613427]}}, {"type": "Feature", "properties": {"name": "A. Dachi", "place": "village", "osm_layer": "settlements"}, "geometry": {"type": "Point", "coordinates": [8.9846819, 12.8370756]}}, {"type": "Feature", "properties": {"name": "Marara", "place": "village", "osm_layer": "settlements"}, "geometry": {"type": "Point", "coordinates": [12.6467812, 13.2931394]}}, {"type": "Feature", "properties": {"name": "Boukar-Boutouri", "place": "village", "osm_layer": "settlements"}, "geometry": {"type": "Point", "coordinates": [12.5602814, 13.2310929]}}, {"type": "Feature", "properties": {"name": "Rouda", "place": "village", "osm_layer": "settlements"}, "geometry": {"type": "Point", "coordinates": [12.5373155, 13.2076253]}}, {"type": "Feature", "properties": {"name": "Guidan May Douma", "place": "village", "osm_layer": "settlements"}, "geometry": {"type": "Point", "coordinates": [5.9216943, 13.7339797]}}, {"type": "Feature", "properties": {"name": "Dan Bard\u00e9", "place": "village", "osm_layer": "settlements"}, "geometry": {"type": "Point", "coordinates": [8.8548842, 12.8884941]}}, {"type": "Feature", "properties": {"name": "Abdouladji", "place": "village", "osm_layer": "settlements"}, "geometry": {"type": "Point", "coordinates": [3.6598613, 12.7657063]}}, {"type": "Feature", "properties": {"name": "Ma\u00efmoujia", "place": "village", "osm_layer": "settlements"}, "geometry": {"type": "Point", "coordinates": [8.2891041, 13.1767759]}}, {"type": "Feature", "properties": {"name": "Dan Rak'oum\u00ee", "place": "village", "osm_layer": "settlements"}, "geometry": {"type": "Point", "coordinates": [8.2722054, 13.2164528]}}, {"type": "Feature", "properties": {"name": "Angoual Dan Koulki", "place": "village", "osm_layer": "settlements"}, "geometry": {"type": "Point", "coordinates": [8.3143731, 13.1735642]}}, {"type": "Feature", "properties": {"name": "Tata Fawa", "place": "village", "osm_layer": "settlements"}, "geometry": {"type": "Point", "coordinates": [8.3197745, 13.1682109]}}, {"type": "Feature", "properties": {"name": "G\u00e2-zabi", "place": "village", "osm_layer": "settlements"}, "geometry": {"type": "Point", "coordinates": [8.4711335, 13.0880754]}}, {"type": "Feature", "properties": {"name": "Bossossoua", "place": "village", "osm_layer": "settlements"}, "geometry": {"type": "Point", "coordinates": [8.3600434, 13.135018]}}, {"type": "Feature", "properties": {"name": "J\u00e2lido", "place": "village", "osm_layer": "settlements"}, "geometry": {"type": "Point", "coordinates": [8.3844404, 13.1114899]}}, {"type": "Feature", "properties": {"name": "Kokoutouko", "place": "village", "osm_layer": "settlements"}, "geometry": {"type": "Point", "coordinates": [8.3995492, 13.0995136]}}, {"type": "Feature", "properties": {"name": "Rigal Koli", "place": "village", "osm_layer": "settlements"}, "geometry": {"type": "Point", "coordinates": [8.4209282, 13.0822063]}}, {"type": "Feature", "properties": {"name": "Rigal Arda", "place": "village", "osm_layer": "settlements"}, "geometry": {"type": "Point", "coordinates": [8.5043139, 13.0858165]}}, {"type": "Feature", "properties": {"name": "K'\u00f6rami", "place": "village", "osm_layer": "settlements"}, "geometry": {"type": "Point", "coordinates": [8.5449402, 13.0728812]}}, {"type": "Feature", "properties": {"name": "Takari", "place": "village", "osm_layer": "settlements"}, "geometry": {"type": "Point", "coordinates": [8.561096, 13.064509]}}, {"type": "Feature", "properties": {"name": "Toumfafi", "place": "village", "osm_layer": "settlements"}, "geometry": {"type": "Point", "coordinates": [8.5954614, 13.0381096]}}, {"type": "Feature", "properties": {"name": "Toub'\u00e9", "place": "village", "osm_layer": "settlements"}, "geometry": {"type": "Point", "coordinates": [8.5813913, 13.0540949]}}, {"type": "Feature", "properties": {"name": "Balamari", "place": "village", "osm_layer": "settlements"}, "geometry": {"type": "Point", "coordinates": [9.8171212, 13.0085463]}}, {"type": "Feature", "properties": {"name": "Bijar\u00e9", "place": "village", "osm_layer": "settlements"}, "geometry": {"type": "Point", "coordinates": [8.3359708, 13.1477162]}}, {"type": "Feature", "properties": {"name": "Mal\u00e9 Mal\u00e9", "place": "village", "osm_layer": "settlements"}, "geometry": {"type": "Point", "coordinates": [9.8991667, 13.0994444]}}, {"type": "Feature", "properties": {"name": "Dunari", "place": "village", "osm_layer": "settlements"}, "geometry": {"type": "Point", "coordinates": [9.9023, 13.0968]}}, {"type": "Feature", "properties": {"name": "Bashiri", "place": "village", "osm_layer": "settlements"}, "geometry": {"type": "Point", "coordinates": [9.9923777, 13.1989499]}}, {"type": "Feature", "properties": {"name": "Geltari", "place": "village", "osm_layer": "settlements"}, "geometry": {"type": "Point", "coordinates": [9.9361206, 13.1375284]}}, {"type": "Feature", "properties": {"name": "Doba", "place": "village", "osm_layer": "settlements"}, "geometry": {"type": "Point", "coordinates": [10.0508368, 13.2173613]}}, {"type": "Feature", "properties": {"name": "Alijiri", "place": "village", "osm_layer": "settlements"}, "geometry": {"type": "Point", "coordinates": [10.4519999, 13.3050112]}}, {"type": "Feature", "properties": {"name": "Dalari", "place": "village", "osm_layer": "settlements"}, "geometry": {"type": "Point", "coordinates": [10.453996, 13.2949775]}}, {"type": "Feature", "properties": {"name": "Bourbourwa", "place": "village", "osm_layer": "settlements"}, "geometry": {"type": "Point", "coordinates": [10.4500667, 13.3224301]}}, {"type": "Feature", "properties": {"name": "Outchia", "place": "village", "osm_layer": "settlements"}, "geometry": {"type": "Point", "coordinates": [5.75, 13.8]}}, {"type": "Feature", "properties": {"name": "Goub\u00e9raya", "place": "village", "osm_layer": "settlements"}, "geometry": {"type": "Point", "coordinates": [5.8107015, 13.7791445]}}, {"type": "Feature", "properties": {"name": "Ballago", "place": "village", "osm_layer": "settlements"}, "geometry": {"type": "Point", "coordinates": [6.0470509, 13.6993726]}}, {"type": "Feature", "properties": {"name": "Kanti\u00e9rawa", "place": "village", "osm_layer": "settlements"}, "geometry": {"type": "Point", "coordinates": [6.0981406, 13.6835666]}}, {"type": "Feature", "properties": {"name": "Guidan Sana", "place": "village", "osm_layer": "settlements"}, "geometry": {"type": "Point", "coordinates": [6.1650099, 13.6571978]}}, {"type": "Feature", "properties": {"name": "Guidan Idi", "place": "village", "osm_layer": "settlements"}, "geometry": {"type": "Point", "coordinates": [6.0166906, 13.7112614]}}, {"type": "Feature", "properties": {"name": "Guidan Ahmed", "place": "village", "osm_layer": "settlements"}, "geometry": {"type": "Point", "coordinates": [6.1336347, 13.6533911]}}, {"type": "Feature", "properties": {"name": "Goungou", "place": "village", "osm_layer": "settlements"}, "geometry": {"type": "Point", "coordinates": [5.9940293, 13.7159551]}}, {"type": "Feature", "properties": {"name": "Godj\u00e9 Fadarawa", "place": "village", "osm_layer": "settlements"}, "geometry": {"type": "Point", "coordinates": [5.95, 13.7333333]}}, {"type": "Feature", "properties": {"name": "Malahango", "place": "village", "osm_layer": "settlements"}, "geometry": {"type": "Point", "coordinates": [6.1711648, 13.6613406]}}, {"type": "Feature", "properties": {"name": "Diboni", "place": "village", "osm_layer": "settlements"}, "geometry": {"type": "Point", "coordinates": [4.9833333, 13.75]}}, {"type": "Feature", "properties": {"name": "Bilandao", "place": "village", "osm_layer": "settlements"}, "geometry": {"type": "Point", "coordinates": [5.7, 13.8333333]}}, {"type": "Feature", "properties": {"name": "Douro", "place": "village", "osm_layer": "settlements"}, "geometry": {"type": "Point", "coordinates": [12.4136811, 13.0864949]}}, {"type": "Feature", "properties": {"name": "Gajaji Mastafa", "place": "village", "osm_layer": "settlements"}, "geometry": {"type": "Point", "coordinates": [12.4555508, 13.0786045]}}, {"type": "Feature", "properties": {"name": "Bar\u00e9was", "place": "hamlet", "osm_layer": "settlements"}, "geometry": {"type": "Point", "coordinates": [12.4780233, 13.0946093]}}, {"type": "Feature", "properties": {"name": "Lada", "place": "village", "osm_layer": "settlements"}, "geometry": {"type": "Point", "coordinates": [12.6459519, 13.3013085]}}, {"type": "Feature", "properties": {"name": "Takasa", "place": "village", "osm_layer": "settlements"}, "geometry": {"type": "Point", "coordinates": [12.7336054, 13.3477602]}}, {"type": "Feature", "properties": {"name": "Fiega Balarg\u00e9", "place": "village", "osm_layer": "settlements"}, "geometry": {"type": "Point", "coordinates": [12.7517064, 13.3555624]}}, {"type": "Feature", "properties": {"name": "Arouwou-Goumsouri", "place": "village", "osm_layer": "settlements"}, "geometry": {"type": "Point", "coordinates": [12.7293476, 13.3284227]}}, {"type": "Feature", "properties": {"name": "Diga", "place": "village", "osm_layer": "settlements"}, "geometry": {"type": "Point", "coordinates": [12.8246713, 13.4142075]}}, {"type": "Feature", "properties": {"name": "D\u00e9loum", "place": "village", "osm_layer": "settlements"}, "geometry": {"type": "Point", "coordinates": [12.7861622, 13.3814652]}}, {"type": "Feature", "properties": {"name": "Dyougoulou", "place": "village", "osm_layer": "settlements"}, "geometry": {"type": "Point", "coordinates": [12.7830388, 13.3803438]}}, {"type": "Feature", "properties": {"name": "Nakin Tawingo", "place": "village", "osm_layer": "settlements"}, "geometry": {"type": "Point", "coordinates": [13.2509275, 13.603935]}}, {"type": "Feature", "properties": {"name": "Kanamga", "place": "village", "osm_layer": "settlements"}, "geometry": {"type": "Point", "coordinates": [12.1098928, 13.1237011]}}, {"type": "Feature", "properties": {"name": "Mankawri", "place": "village", "osm_layer": "settlements"}, "geometry": {"type": "Point", "coordinates": [12.287717, 13.1104581]}}, {"type": "Feature", "properties": {"name": "Abasiri", "place": "village", "osm_layer": "settlements"}, "geometry": {"type": "Point", "coordinates": [12.0316574, 13.1597669]}}, {"type": "Feature", "properties": {"name": "Alya Founouri", "place": "village", "osm_layer": "settlements"}, "geometry": {"type": "Point", "coordinates": [12.2191439, 13.1388585]}}, {"type": "Feature", "properties": {"name": "Boula Lawani", "place": "village", "osm_layer": "settlements"}, "geometry": {"type": "Point", "coordinates": [10.8226193, 13.3763916]}}, {"type": "Feature", "properties": {"name": "Djidji Gadori", "place": "hamlet", "osm_layer": "settlements"}, "geometry": {"type": "Point", "coordinates": [10.9606873, 13.3796515]}}, {"type": "Feature", "properties": {"name": "Gr\u00e9ma Bokardi I", "place": "village", "osm_layer": "settlements"}, "geometry": {"type": "Point", "coordinates": [11.2909796, 13.3943204]}}, {"type": "Feature", "properties": {"name": "Saj\u00e9 Manja", "place": "village", "osm_layer": "settlements"}, "geometry": {"type": "Point", "coordinates": [7.813039, 13.3453929]}}, {"type": "Feature", "properties": {"name": "Guidan Goul\u00e9", "place": "village", "osm_layer": "settlements"}, "geometry": {"type": "Point", "coordinates": [7.7616561, 13.3152585]}}, {"type": "Feature", "properties": {"name": "Gonga Broula", "place": "village", "osm_layer": "settlements"}, "geometry": {"type": "Point", "coordinates": [7.711455, 13.2859379]}}, {"type": "Feature", "properties": {"name": "Guidan Chinaou", "place": "village", "osm_layer": "settlements"}, "geometry": {"type": "Point", "coordinates": [7.7732764, 13.3278472]}}, {"type": "Feature", "properties": {"name": "Gassakoli", "place": "village", "osm_layer": "settlements"}, "geometry": {"type": "Point", "coordinates": [7.6768559, 13.2636523]}}, {"type": "Feature", "properties": {"name": "D'aga-zari", "place": "village", "osm_layer": "settlements"}, "geometry": {"type": "Point", "coordinates": [7.6156306, 13.2239606]}}, {"type": "Feature", "properties": {"name": "Dan Makiawa", "place": "village", "osm_layer": "settlements"}, "geometry": {"type": "Point", "coordinates": [7.7272711, 13.3085616]}}, {"type": "Feature", "properties": {"name": "Ban\u00e9n\u00e9", "place": "village", "osm_layer": "settlements"}, "geometry": {"type": "Point", "coordinates": [7.8443821, 13.3445865]}}, {"type": "Feature", "properties": {"name": "Angoal Dan Gourgou", "place": "village", "osm_layer": "settlements"}, "geometry": {"type": "Point", "coordinates": [7.6333333, 13.2333333]}}, {"type": "Feature", "properties": {"name": "Charin Dawa", "place": "village", "osm_layer": "settlements"}, "geometry": {"type": "Point", "coordinates": [7.7903796, 13.3434512]}}, {"type": "Feature", "properties": {"name": "Guidan Kan\u00e9", "place": "village", "osm_layer": "settlements"}, "geometry": {"type": "Point", "coordinates": [7.793197, 13.3331041]}}, {"type": "Feature", "properties": {"name": "Guidan Alassane", "place": "village", "osm_layer": "settlements"}, "geometry": {"type": "Point", "coordinates": [7.7236303, 13.2961431]}}, {"type": "Feature", "properties": {"name": "Allah Sini", "place": "village", "osm_layer": "settlements"}, "geometry": {"type": "Point", "coordinates": [7.6350938, 13.2371549]}}, {"type": "Feature", "properties": {"name": "Guidan Gado", "place": "village", "osm_layer": "settlements"}, "geometry": {"type": "Point", "coordinates": [7.6537531, 13.2545291]}}, {"type": "Feature", "properties": {"name": "Dan Kolio Yamm\u00e2", "place": "village", "osm_layer": "settlements"}, "geometry": {"type": "Point", "coordinates": [7.8926144, 13.3423635]}}, {"type": "Feature", "properties": {"name": "Birnin Ko\u00fbka", "place": "village", "osm_layer": "settlements"}, "geometry": {"type": "Point", "coordinates": [7.9876997, 13.3253576]}}, {"type": "Feature", "properties": {"name": "Chantali", "place": "village", "osm_layer": "settlements"}, "geometry": {"type": "Point", "coordinates": [7.9215304, 13.3425238]}}, {"type": "Feature", "properties": {"name": "Guidan Kaji", "place": "village", "osm_layer": "settlements"}, "geometry": {"type": "Point", "coordinates": [8.0349331, 13.321717]}}, {"type": "Feature", "properties": {"name": "Guidan Tambari", "place": "village", "osm_layer": "settlements"}, "geometry": {"type": "Point", "coordinates": [7.8608442, 13.3409897]}}, {"type": "Feature", "properties": {"name": "Darto", "place": "village", "osm_layer": "settlements"}, "geometry": {"type": "Point", "coordinates": [8.019055, 13.3276003]}}, {"type": "Feature", "properties": {"name": "Maz\u00e2 Waj\u00e9", "place": "village", "osm_layer": "settlements"}, "geometry": {"type": "Point", "coordinates": [7.9473051, 13.329231]}}, {"type": "Feature", "properties": {"name": "Goura Gouri", "place": "village", "osm_layer": "settlements"}, "geometry": {"type": "Point", "coordinates": [8.0892343, 13.3062847]}}, {"type": "Feature", "properties": {"name": "Tankama", "place": "village", "osm_layer": "settlements"}, "geometry": {"type": "Point", "coordinates": [6.7315438, 13.2916068]}}, {"type": "Feature", "properties": {"name": "Tabkin Kiria", "place": "village", "osm_layer": "settlements"}, "geometry": {"type": "Point", "coordinates": [6.7062165, 13.3098899]}}, {"type": "Feature", "properties": {"name": "S\u00e8rkin Abzin Saboa", "place": "village", "osm_layer": "settlements"}, "geometry": {"type": "Point", "coordinates": [6.7498857, 13.2592374]}}, {"type": "Feature", "properties": {"name": "Salo", "place": "village", "osm_layer": "settlements"}, "geometry": {"type": "Point", "coordinates": [6.7871049, 13.198971]}}, {"type": "Feature", "properties": {"name": "Mamori", "place": "village", "osm_layer": "settlements"}, "geometry": {"type": "Point", "coordinates": [6.7737539, 13.2404196]}}, {"type": "Feature", "properties": {"name": "Malam", "place": "village", "osm_layer": "settlements"}, "geometry": {"type": "Point", "coordinates": [6.7554867, 13.2449491]}}, {"type": "Feature", "properties": {"name": "Guidan Asan", "place": "village", "osm_layer": "settlements"}, "geometry": {"type": "Point", "coordinates": [6.6875454, 13.3281116]}}, {"type": "Feature", "properties": {"name": "Garin Labou", "place": "village", "osm_layer": "settlements"}, "geometry": {"type": "Point", "coordinates": [6.7726108, 13.2272744]}}, {"type": "Feature", "properties": {"name": "Fangari", "place": "village", "osm_layer": "settlements"}, "geometry": {"type": "Point", "coordinates": [6.7187247, 13.2979426]}}, {"type": "Feature", "properties": {"name": "Dan K\u00e9tou", "place": "hamlet", "osm_layer": "settlements"}, "geometry": {"type": "Point", "coordinates": [6.7961076, 13.1881082]}}, {"type": "Feature", "properties": {"name": "Dan Kano", "place": "village", "osm_layer": "settlements"}, "geometry": {"type": "Point", "coordinates": [6.7394306, 13.2788687]}}, {"type": "Feature", "properties": {"name": "Chawey", "place": "village", "osm_layer": "settlements"}, "geometry": {"type": "Point", "coordinates": [6.7519432, 13.2742115]}}, {"type": "Feature", "properties": {"name": "Guidan Labou", "place": "village", "osm_layer": "settlements"}, "geometry": {"type": "Point", "coordinates": [6.6098488, 13.4203289]}}, {"type": "Feature", "properties": {"name": "Garin Kan\u00e9", "place": "village", "osm_layer": "settlements"}, "geometry": {"type": "Point", "coordinates": [6.4686763, 13.5813461]}}, {"type": "Feature", "properties": {"name": "Jamb\u00e9ri", "place": "village", "osm_layer": "settlements"}, "geometry": {"type": "Point", "coordinates": [6.3945274, 13.6318814]}}, {"type": "Feature", "properties": {"name": "Kol\u00e8ngu\u00e9", "place": "hamlet", "osm_layer": "settlements"}, "geometry": {"type": "Point", "coordinates": [7.1, 13.0166667]}}, {"type": "Feature", "properties": {"name": "Diga", "place": "village", "osm_layer": "settlements"}, "geometry": {"type": "Point", "coordinates": [7.0833333, 13.0166667]}}, {"type": "Feature", "properties": {"name": "Doutchi Ko\u00fbr\u00e2", "place": "village", "osm_layer": "settlements"}, "geometry": {"type": "Point", "coordinates": [7.3554463, 13.1013491]}}, {"type": "Feature", "properties": {"name": "Dan Abdallah", "place": "village", "osm_layer": "settlements"}, "geometry": {"type": "Point", "coordinates": [7.1865938, 13.0896218]}}, {"type": "Feature", "properties": {"name": "Garin Kaoura", "place": "village", "osm_layer": "settlements"}, "geometry": {"type": "Point", "coordinates": [7.1706104, 13.0643504]}}, {"type": "Feature", "properties": {"name": "May Daboro", "place": "village", "osm_layer": "settlements"}, "geometry": {"type": "Point", "coordinates": [7.3028722, 13.1080693]}}, {"type": "Feature", "properties": {"name": "Dan K\u00e9ch\u00e9", "place": "village", "osm_layer": "settlements"}, "geometry": {"type": "Point", "coordinates": [7.3833464, 13.1017928]}}, {"type": "Feature", "properties": {"name": "Koufan K\u00e4ssoua", "place": "village", "osm_layer": "settlements"}, "geometry": {"type": "Point", "coordinates": [7.5199807, 13.18038]}}, {"type": "Feature", "properties": {"name": "Yola D\u00e2d'in Serki", "place": "village", "osm_layer": "settlements"}, "geometry": {"type": "Point", "coordinates": [7.541008, 13.190202]}}, {"type": "Feature", "properties": {"name": "Taka-s\u00e2ba", "place": "hamlet", "osm_layer": "settlements"}, "geometry": {"type": "Point", "coordinates": [7.5762902, 13.2010029]}}, {"type": "Feature", "properties": {"name": "Guidan Kor\u00e9", "place": "village", "osm_layer": "settlements"}, "geometry": {"type": "Point", "coordinates": [7.5542884, 13.2065258]}}, {"type": "Feature", "properties": {"name": "Dan Takiara", "place": "village", "osm_layer": "settlements"}, "geometry": {"type": "Point", "coordinates": [8.1887627, 13.2430178]}}, {"type": "Feature", "properties": {"name": "Dan Dodo", "place": "village", "osm_layer": "settlements"}, "geometry": {"type": "Point", "coordinates": [8.1327991, 13.3001096]}}, {"type": "Feature", "properties": {"name": "Tad\u00e9ta", "place": "village", "osm_layer": "settlements"}, "geometry": {"type": "Point", "coordinates": [8.258585, 13.2206952]}}, {"type": "Feature", "properties": {"name": "Dan Koundili", "place": "village", "osm_layer": "settlements"}, "geometry": {"type": "Point", "coordinates": [8.2280246, 13.2190234]}}, {"type": "Feature", "properties": {"name": "Dan Baba", "place": "village", "osm_layer": "settlements"}, "geometry": {"type": "Point", "coordinates": [8.1401825, 13.2784449]}}, {"type": "Feature", "properties": {"name": "Makouba", "place": "village", "osm_layer": "settlements"}, "geometry": {"type": "Point", "coordinates": [8.201909, 13.2486197]}}, {"type": "Feature", "properties": {"name": "May Adoua Kadey", "place": "village", "osm_layer": "settlements"}, "geometry": {"type": "Point", "coordinates": [8.1755037, 13.2703368]}}, {"type": "Feature", "properties": {"name": "Rijia Boule", "place": "village", "osm_layer": "settlements"}, "geometry": {"type": "Point", "coordinates": [8.2300281, 13.233874]}}, {"type": "Feature", "properties": {"name": null, "place": "town", "osm_layer": "settlements"}, "geometry": {"type": "Point", "coordinates": [7.9450996, 9.1439245]}}, {"type": "Feature", "properties": {"name": "Damba", "place": "village", "osm_layer": "settlements"}, "geometry": {"type": "Point", "coordinates": [7.2100135, 10.484144]}}, {"type": "Feature", "properties": {"name": "Kadi", "place": "village", "osm_layer": "settlements"}, "geometry": {"type": "Point", "coordinates": [7.2541305, 10.4525776]}}, {"type": "Feature", "properties": {"name": "Tagwaye", "place": "village", "osm_layer": "settlements"}, "geometry": {"type": "Point", "coordinates": [7.3071166, 10.5057432]}}, {"type": "Feature", "properties": {"name": "Tudu", "place": "village", "osm_layer": "settlements"}, "geometry": {"type": "Point", "coordinates": [7.3521491, 10.4667575]}}, {"type": "Feature", "properties": {"name": "Afaka", "place": "village", "osm_layer": "settlements"}, "geometry": {"type": "Point", "coordinates": [7.3877993, 10.6666303]}}, {"type": "Feature", "properties": {"name": "Rigachikum", "place": "village", "osm_layer": "settlements"}, "geometry": {"type": "Point", "coordinates": [7.4721991, 10.6403478]}}, {"type": "Feature", "properties": {"name": "Rihogi", "place": "village", "osm_layer": "settlements"}, "geometry": {"type": "Point", "coordinates": [7.5805174, 10.6253745]}}, {"type": "Feature", "properties": {"name": "Kan Girni", "place": "village", "osm_layer": "settlements"}, "geometry": {"type": "Point", "coordinates": [7.5967394, 10.739027]}}, {"type": "Feature", "properties": {"name": "Amana", "place": "village", "osm_layer": "settlements"}, "geometry": {"type": "Point", "coordinates": [7.662829, 10.7319434]}}, {"type": "Feature", "properties": {"name": "Kakau", "place": "village", "osm_layer": "settlements"}, "geometry": {"type": "Point", "coordinates": [7.3957852, 10.3762032]}}, {"type": "Feature", "properties": {"name": "Samaru", "place": "village", "osm_layer": "settlements"}, "geometry": {"type": "Point", "coordinates": [7.6516217, 11.1653607]}}, {"type": "Feature", "properties": {"name": "Kenieba", "place": "village", "osm_layer": "settlements"}, "geometry": {"type": "Point", "coordinates": [11.2415847, 12.8564377]}}, {"type": "Feature", "properties": {"name": "Azare", "place": "town", "osm_layer": "settlements"}, "geometry": {"type": "Point", "coordinates": [10.1918308, 11.6729045]}}, {"type": "Feature", "properties": {"name": "Kaiama", "place": "town", "osm_layer": "settlements"}, "geometry": {"type": "Point", "coordinates": [3.9414245, 9.6099484]}}, {"type": "Feature", "properties": {"name": "Wawa", "place": "town", "osm_layer": "settlements"}, "geometry": {"type": "Point", "coordinates": [4.4100975, 9.9037231]}}, {"type": "Feature", "properties": {"name": "Shangunu", "place": "town", "osm_layer": "settlements"}, "geometry": {"type": "Point", "coordinates": [4.4692832, 10.3408166]}}, {"type": "Feature", "properties": {"name": "Babana", "place": "town", "osm_layer": "settlements"}, "geometry": {"type": "Point", "coordinates": [3.8181716, 10.433683]}}, {"type": "Feature", "properties": {"name": "Rofia", "place": "village", "osm_layer": "settlements"}, "geometry": {"type": "Point", "coordinates": [4.7094317, 10.7121403]}}, {"type": "Feature", "properties": {"name": "Konwesso", "place": "village", "osm_layer": "settlements"}, "geometry": {"type": "Point", "coordinates": [4.2943156, 10.8998309]}}, {"type": "Feature", "properties": {"name": "Faku", "place": "village", "osm_layer": "settlements"}, "geometry": {"type": "Point", "coordinates": [4.6135021, 9.8536826]}}, {"type": "Feature", "properties": {"name": "Gurai", "place": "village", "osm_layer": "settlements"}, "geometry": {"type": "Point", "coordinates": [3.2927872, 9.6283927]}}, {"type": "Feature", "properties": {"name": "Yashikera", "place": "village", "osm_layer": "settlements"}, "geometry": {"type": "Point", "coordinates": [3.3983586, 9.7713582]}}, {"type": "Feature", "properties": {"name": "Sare", "place": "village", "osm_layer": "settlements"}, "geometry": {"type": "Point", "coordinates": [3.3720944, 9.7075746]}}, {"type": "Feature", "properties": {"name": "Gbani", "place": "village", "osm_layer": "settlements"}, "geometry": {"type": "Point", "coordinates": [3.3379338, 9.5274941]}}, {"type": "Feature", "properties": {"name": "Gwasero", "place": "village", "osm_layer": "settlements"}, "geometry": {"type": "Point", "coordinates": [3.5059903, 9.4875385]}}, {"type": "Feature", "properties": {"name": "Kenu", "place": "village", "osm_layer": "settlements"}, "geometry": {"type": "Point", "coordinates": [3.1122191, 9.1081593]}}, {"type": "Feature", "properties": {"name": "Uyo", "place": "city", "osm_layer": "settlements"}, "geometry": {"type": "Point", "coordinates": [7.924791, 5.0322447]}}, {"type": "Feature", "properties": {"name": "Alamoji", "place": "town", "osm_layer": "settlements"}, "geometry": {"type": "Point", "coordinates": [5.2480027, 7.664568]}}, {"type": "Feature", "properties": {"name": "Pelguji", "place": "village", "osm_layer": "settlements"}, "geometry": {"type": "Point", "coordinates": [10.86717, 10.187968]}}, {"type": "Feature", "properties": {"name": "Elelenwo", "place": "town", "osm_layer": "settlements"}, "geometry": {"type": "Point", "coordinates": [7.0667072, 4.8499091]}}, {"type": "Feature", "properties": {"name": "Korokopogbene", "place": "village", "osm_layer": "settlements"}, "geometry": {"type": "Point", "coordinates": [5.7119425, 4.6556604]}}, {"type": "Feature", "properties": {"name": "Dunba", "place": "village", "osm_layer": "settlements"}, "geometry": {"type": "Point", "coordinates": [6.7429328, 12.1450771]}}, {"type": "Feature", "properties": {"name": "Abulabiri", "place": "village", "osm_layer": "settlements"}, "geometry": {"type": "Point", "coordinates": [6.2790389, 4.7048317]}}, {"type": "Feature", "properties": {"name": "Doro Gowon", "place": "town", "osm_layer": "settlements"}, "geometry": {"type": "Point", "coordinates": [13.8604144, 13.117302]}}, {"type": "Feature", "properties": {"name": "Kalichiro", "place": "hamlet", "osm_layer": "settlements"}, "geometry": {"type": "Point", "coordinates": [13.213203, 13.536663]}}, {"type": "Feature", "properties": {"name": "Irraboa", "place": "village", "osm_layer": "settlements"}, "geometry": {"type": "Point", "coordinates": [13.2572161, 13.6009915]}}, {"type": "Feature", "properties": {"name": "Foliwa", "place": "village", "osm_layer": "settlements"}, "geometry": {"type": "Point", "coordinates": [13.3261665, 13.4902807]}}, {"type": "Feature", "properties": {"name": "Dutsen Kam", "place": "village", "osm_layer": "settlements"}, "geometry": {"type": "Point", "coordinates": [9.85, 11.116667]}}, {"type": "Feature", "properties": {"name": "Marikishi", "place": "village", "osm_layer": "settlements"}, "geometry": {"type": "Point", "coordinates": [6.65, 9.55]}}, {"type": "Feature", "properties": {"name": "Lafanichiwake", "place": "village", "osm_layer": "settlements"}, "geometry": {"type": "Point", "coordinates": [5.4248796, 13.7529335]}}, {"type": "Feature", "properties": {"name": "Barakin", "place": "village", "osm_layer": "settlements"}, "geometry": {"type": "Point", "coordinates": [8.9, 9.533333]}}, {"type": "Feature", "properties": {"name": "Ngbalang", "place": "village", "osm_layer": "settlements"}, "geometry": {"type": "Point", "coordinates": [12.021804, 9.517869]}}, {"type": "Feature", "properties": {"name": "Sabon Birni", "place": "village", "osm_layer": "settlements"}, "geometry": {"type": "Point", "coordinates": [4.769154, 12.4640064]}}, {"type": "Feature", "properties": {"name": "Dimmerwa", "place": "hamlet", "osm_layer": "settlements"}, "geometry": {"type": "Point", "coordinates": [12.721017, 13.141734]}}, {"type": "Feature", "properties": {"name": "Asafo", "place": "village", "osm_layer": "settlements"}, "geometry": {"type": "Point", "coordinates": [2.9309877, 6.799071]}}, {"type": "Feature", "properties": {"name": "Longo Makera", "place": "village", "osm_layer": "settlements"}, "geometry": {"type": "Point", "coordinates": [5.0693921, 12.5125403]}}, {"type": "Feature", "properties": {"name": "Ipetu", "place": "village", "osm_layer": "settlements"}, "geometry": {"type": "Point", "coordinates": [4.883333, 7.466667]}}, {"type": "Feature", "properties": {"name": "Aba Khalli", "place": "hamlet", "osm_layer": "settlements"}, "geometry": {"type": "Point", "coordinates": [14.4196763, 11.8845531]}}, {"type": "Feature", "properties": {"name": "Dadin Sarki", "place": "village", "osm_layer": "settlements"}, "geometry": {"type": "Point", "coordinates": [8.2233975, 13.2056334]}}, {"type": "Feature", "properties": {"name": "Ososa", "place": "village", "osm_layer": "settlements"}, "geometry": {"type": "Point", "coordinates": [3.8559855, 6.794565]}}, {"type": "Feature", "properties": {"name": "Odo-Mola", "place": "village", "osm_layer": "settlements"}, "geometry": {"type": "Point", "coordinates": [3.9855455, 6.6071265]}}, {"type": "Feature", "properties": {"name": "Itamaga", "place": "village", "osm_layer": "settlements"}, "geometry": {"type": "Point", "coordinates": [3.5328165, 6.631181]}}, {"type": "Feature", "properties": {"name": "Kigam", "place": "hamlet", "osm_layer": "settlements"}, "geometry": {"type": "Point", "coordinates": [5.8248872, 11.1048162]}}, {"type": "Feature", "properties": {"name": "Ogbokiri", "place": "hamlet", "osm_layer": "settlements"}, "geometry": {"type": "Point", "coordinates": [6.9107604, 4.7938492]}}, {"type": "Feature", "properties": {"name": "Ogonokom", "place": "village", "osm_layer": "settlements"}, "geometry": {"type": "Point", "coordinates": [6.7091815, 4.7910965]}}, {"type": "Feature", "properties": {"name": "Kala Orubou", "place": "village", "osm_layer": "settlements"}, "geometry": {"type": "Point", "coordinates": [6.2451715, 4.3860475]}}, {"type": "Feature", "properties": {"name": "Gandabura", "place": "village", "osm_layer": "settlements"}, "geometry": {"type": "Point", "coordinates": [11.0693, 11.6531]}}, {"type": "Feature", "properties": {"name": "Kureke", "place": "village", "osm_layer": "settlements"}, "geometry": {"type": "Point", "coordinates": [9.4483767, 6.4752033]}}, {"type": "Feature", "properties": {"name": "Gari", "place": "village", "osm_layer": "settlements"}, "geometry": {"type": "Point", "coordinates": [10.4418274, 12.8723133]}}, {"type": "Feature", "properties": {"name": "Asa-Oke-Oko", "place": "village", "osm_layer": "settlements"}, "geometry": {"type": "Point", "coordinates": [3.077493, 6.9365185]}}, {"type": "Feature", "properties": {"name": "Araromi-Tope", "place": "village", "osm_layer": "settlements"}, "geometry": {"type": "Point", "coordinates": [3.7882679, 6.5096182]}}, {"type": "Feature", "properties": {"name": "Kukun", "place": "village", "osm_layer": "settlements"}, "geometry": {"type": "Point", "coordinates": [5.1832397, 11.4164658]}}, {"type": "Feature", "properties": {"name": "Danrenge", "place": "village", "osm_layer": "settlements"}, "geometry": {"type": "Point", "coordinates": [5.2766054, 11.275415]}}, {"type": "Feature", "properties": {"name": "Okobor", "place": "village", "osm_layer": "settlements"}, "geometry": {"type": "Point", "coordinates": [6.6176415, 4.884909]}}, {"type": "Feature", "properties": {"name": "Ninowa", "place": "village", "osm_layer": "settlements"}, "geometry": {"type": "Point", "coordinates": [11.4420959, 11.0099442]}}, {"type": "Feature", "properties": {"name": "Maibwari", "place": "hamlet", "osm_layer": "settlements"}, "geometry": {"type": "Point", "coordinates": [11.6815441, 11.8252675]}}, {"type": "Feature", "properties": {"name": "Akodo", "place": "village", "osm_layer": "settlements"}, "geometry": {"type": "Point", "coordinates": [3.9302655, 6.435457]}}, {"type": "Feature", "properties": {"name": "Okpoma", "place": "town", "osm_layer": "settlements"}, "geometry": {"type": "Point", "coordinates": [6.2933112, 4.3027835]}}, {"type": "Feature", "properties": {"name": "Lelekiri", "place": "village", "osm_layer": "settlements"}, "geometry": {"type": "Point", "coordinates": [6.7770521, 4.6633367]}}, {"type": "Feature", "properties": {"name": "Layemi", "place": "village", "osm_layer": "settlements"}, "geometry": {"type": "Point", "coordinates": [3.3152176, 6.7947672]}}, {"type": "Feature", "properties": {"name": "Bam", "place": "village", "osm_layer": "settlements"}, "geometry": {"type": "Point", "coordinates": [11.4961726, 11.7576023]}}, {"type": "Feature", "properties": {"name": "Arapagi", "place": "village", "osm_layer": "settlements"}, "geometry": {"type": "Point", "coordinates": [3.7771754, 6.5090333]}}, {"type": "Feature", "properties": {"name": "Agura", "place": "village", "osm_layer": "settlements"}, "geometry": {"type": "Point", "coordinates": [3.6293858, 6.5750627]}}, {"type": "Feature", "properties": {"name": "Marke", "place": "village", "osm_layer": "settlements"}, "geometry": {"type": "Point", "coordinates": [11.2172727, 11.7196877]}}, {"type": "Feature", "properties": {"name": "Maimazari Katawa", "place": "village", "osm_layer": "settlements"}, "geometry": {"type": "Point", "coordinates": [8.6149607, 12.5689332]}}, {"type": "Feature", "properties": {"name": "Egbedeama", "place": "village", "osm_layer": "settlements"}, "geometry": {"type": "Point", "coordinates": [6.2362306, 4.7724482]}}, {"type": "Feature", "properties": {"name": "Frankkiri", "place": "village", "osm_layer": "settlements"}, "geometry": {"type": "Point", "coordinates": [6.605368, 4.449329]}}, {"type": "Feature", "properties": {"name": "Bagega", "place": "village", "osm_layer": "settlements"}, "geometry": {"type": "Point", "coordinates": [6.0025358, 11.8650174]}}, {"type": "Feature", "properties": {"name": "Cana", "place": "village", "osm_layer": "settlements"}, "geometry": {"type": "Point", "coordinates": [11.0249, 11.4603]}}, {"type": "Feature", "properties": {"name": "Sare", "place": "village", "osm_layer": "settlements"}, "geometry": {"type": "Point", "coordinates": [3.3405555, 6.987196]}}, {"type": "Feature", "properties": {"name": "Alapoti", "place": "village", "osm_layer": "settlements"}, "geometry": {"type": "Point", "coordinates": [3.028698, 6.632027]}}, {"type": "Feature", "properties": {"name": "Masholari", "place": "village", "osm_layer": "settlements"}, "geometry": {"type": "Point", "coordinates": [11.5734539, 11.8483838]}}, {"type": "Feature", "properties": {"name": "Sagamu", "place": "city", "osm_layer": "settlements"}, "geometry": {"type": "Point", "coordinates": [3.6440551, 6.8477165]}}, {"type": "Feature", "properties": {"name": "Omu", "place": "village", "osm_layer": "settlements"}, "geometry": {"type": "Point", "coordinates": [3.9735995, 6.495316]}}, {"type": "Feature", "properties": {"name": "Mingidukiri", "place": "village", "osm_layer": "settlements"}, "geometry": {"type": "Point", "coordinates": [6.8360073, 4.6241628]}}, {"type": "Feature", "properties": {"name": "Ewekoro", "place": "village", "osm_layer": "settlements"}, "geometry": {"type": "Point", "coordinates": [3.208703, 6.907079]}}, {"type": "Feature", "properties": {"name": "Kalalawa", "place": "village", "osm_layer": "settlements"}, "geometry": {"type": "Point", "coordinates": [11.8614, 11.9389]}}, {"type": "Feature", "properties": {"name": "Lengikiri", "place": "village", "osm_layer": "settlements"}, "geometry": {"type": "Point", "coordinates": [6.2890368, 4.5739397]}}, {"type": "Feature", "properties": {"name": "Ondewari", "place": "village", "osm_layer": "settlements"}, "geometry": {"type": "Point", "coordinates": [6.0095113, 4.7721365]}}, {"type": "Feature", "properties": {"name": "Ipatira", "place": "village", "osm_layer": "settlements"}, "geometry": {"type": "Point", "coordinates": [3.1605905, 6.5516734]}}, {"type": "Feature", "properties": {"name": "Anyama", "place": "village", "osm_layer": "settlements"}, "geometry": {"type": "Point", "coordinates": [6.2308988, 4.759865]}}, {"type": "Feature", "properties": {"name": "Dogon Bauci", "place": "village", "osm_layer": "settlements"}, "geometry": {"type": "Point", "coordinates": [11.4778168, 11.3258944]}}, {"type": "Feature", "properties": {"name": "Ipirigbene", "place": "village", "osm_layer": "settlements"}, "geometry": {"type": "Point", "coordinates": [6.1561193, 4.6884712]}}, {"type": "Feature", "properties": {"name": "Ibafo", "place": "village", "osm_layer": "settlements"}, "geometry": {"type": "Point", "coordinates": [3.421874, 6.7424415]}}, {"type": "Feature", "properties": {"name": "Gaudi", "place": "village", "osm_layer": "settlements"}, "geometry": {"type": "Point", "coordinates": [5.4328469, 11.8277245]}}, {"type": "Feature", "properties": {"name": "Rinjim Mukur", "place": "village", "osm_layer": "settlements"}, "geometry": {"type": "Point", "coordinates": [9.2718301, 10.1293656]}}, {"type": "Feature", "properties": {"name": "Abonnema", "place": "village", "osm_layer": "settlements"}, "geometry": {"type": "Point", "coordinates": [6.79307, 4.708438]}}, {"type": "Feature", "properties": {"name": "Yarumen Dan Galadima", "place": "village", "osm_layer": "settlements"}, "geometry": {"type": "Point", "coordinates": [4.9975522, 13.0110108]}}, {"type": "Feature", "properties": {"name": "Odiama", "place": "village", "osm_layer": "settlements"}, "geometry": {"type": "Point", "coordinates": [6.43082, 4.3290975]}}, {"type": "Feature", "properties": {"name": "Isola", "place": "village", "osm_layer": "settlements"}, "geometry": {"type": "Point", "coordinates": [3.323469, 6.8354955]}}, {"type": "Feature", "properties": {"name": "Ibon", "place": "village", "osm_layer": "settlements"}, "geometry": {"type": "Point", "coordinates": [3.7392977, 6.5457965]}}, {"type": "Feature", "properties": {"name": "Chibiyayi", "place": "village", "osm_layer": "settlements"}, "geometry": {"type": "Point", "coordinates": [10.2218, 12.0087]}}, {"type": "Feature", "properties": {"name": "Musari", "place": "village", "osm_layer": "settlements"}, "geometry": {"type": "Point", "coordinates": [10.4432, 12.4742]}}, {"type": "Feature", "properties": {"name": "Dansabo", "place": "village", "osm_layer": "settlements"}, "geometry": {"type": "Point", "coordinates": [7.1610728, 11.9694055]}}, {"type": "Feature", "properties": {"name": "Odokoro", "place": "village", "osm_layer": "settlements"}, "geometry": {"type": "Point", "coordinates": [5.997953, 7.9452945]}}, {"type": "Feature", "properties": {"name": "Iye", "place": "village", "osm_layer": "settlements"}, "geometry": {"type": "Point", "coordinates": [5.2364945, 7.9556175]}}, {"type": "Feature", "properties": {"name": "Nassarawa", "place": "village", "osm_layer": "settlements"}, "geometry": {"type": "Point", "coordinates": [7.0762269, 11.9563428]}}, {"type": "Feature", "properties": {"name": "Iyara", "place": "village", "osm_layer": "settlements"}, "geometry": {"type": "Point", "coordinates": [5.9739825, 7.8429885]}}, {"type": "Feature", "properties": {"name": "Oke Igbira", "place": "town", "osm_layer": "settlements"}, "geometry": {"type": "Point", "coordinates": [5.5641165, 7.8132849]}}, {"type": "Feature", "properties": {"name": "Odo-Igbira", "place": "village", "osm_layer": "settlements"}, "geometry": {"type": "Point", "coordinates": [5.5805273, 7.8157083]}}, {"type": "Feature", "properties": {"name": "Tarajim", "place": "village", "osm_layer": "settlements"}, "geometry": {"type": "Point", "coordinates": [10.9567211, 12.0238962]}}, {"type": "Feature", "properties": {"name": "Ode", "place": "village", "osm_layer": "settlements"}, "geometry": {"type": "Point", "coordinates": [5.7117, 7.7899]}}, {"type": "Feature", "properties": {"name": "Are-Ekiti", "place": "village", "osm_layer": "settlements"}, "geometry": {"type": "Point", "coordinates": [5.2998, 7.7101]}}, {"type": "Feature", "properties": {"name": "Abua", "place": "town", "osm_layer": "settlements"}, "geometry": {"type": "Point", "coordinates": [6.6457627, 4.8559516]}}, {"type": "Feature", "properties": {"name": "Igede-Ekiti", "place": "town", "osm_layer": "settlements"}, "geometry": {"type": "Point", "coordinates": [5.1263452, 7.6676114]}}, {"type": "Feature", "properties": {"name": "Eyio Ekiti", "place": "village", "osm_layer": "settlements"}, "geometry": {"type": "Point", "coordinates": [5.1827, 7.7284]}}, {"type": "Feature", "properties": {"name": "Oke Agbe", "place": "town", "osm_layer": "settlements"}, "geometry": {"type": "Point", "coordinates": [5.7610207, 7.641575]}}, {"type": "Feature", "properties": {"name": "Ode", "place": "village", "osm_layer": "settlements"}, "geometry": {"type": "Point", "coordinates": [5.552041, 7.6456705]}}, {"type": "Feature", "properties": {"name": "Gajari Jenawa", "place": "village", "osm_layer": "settlements"}, "geometry": {"type": "Point", "coordinates": [4.7426175, 13.1208286]}}, {"type": "Feature", "properties": {"name": "Adeyokun", "place": "village", "osm_layer": "settlements"}, "geometry": {"type": "Point", "coordinates": [3.5218135, 6.978322]}}, {"type": "Feature", "properties": {"name": "Garmakwa Yamma", "place": "village", "osm_layer": "settlements"}, "geometry": {"type": "Point", "coordinates": [10.504, 12.6952]}}, {"type": "Feature", "properties": {"name": "Hardo Buba", "place": "village", "osm_layer": "settlements"}, "geometry": {"type": "Point", "coordinates": [10.0932, 12.7363]}}, {"type": "Feature", "properties": {"name": "Gurka", "place": "village", "osm_layer": "settlements"}, "geometry": {"type": "Point", "coordinates": [10.2374, 12.3529]}}, {"type": "Feature", "properties": {"name": "Kafin Gwandu", "place": "village", "osm_layer": "settlements"}, "geometry": {"type": "Point", "coordinates": [9.1152936, 10.2956975]}}, {"type": "Feature", "properties": {"name": "Obuton", "place": "village", "osm_layer": "settlements"}, "geometry": {"type": "Point", "coordinates": [8.4344885, 5.7046315]}}, {"type": "Feature", "properties": {"name": "Leke-Onueme", "place": "village", "osm_layer": "settlements"}, "geometry": {"type": "Point", "coordinates": [7.6424, 6.7193]}}, {"type": "Feature", "properties": {"name": "Okom Ita", "place": "village", "osm_layer": "settlements"}, "geometry": {"type": "Point", "coordinates": [8.332044, 5.3358965]}}, {"type": "Feature", "properties": {"name": "Ukoshie", "place": "village", "osm_layer": "settlements"}, "geometry": {"type": "Point", "coordinates": [9.1231, 6.5547]}}, {"type": "Feature", "properties": {"name": "Yajiwa", "place": "village", "osm_layer": "settlements"}, "geometry": {"type": "Point", "coordinates": [12.7201035, 11.3862517]}}, {"type": "Feature", "properties": {"name": "Bulabulin Ngaburawa", "place": "village", "osm_layer": "settlements"}, "geometry": {"type": "Point", "coordinates": [12.9087288, 11.3904861]}}, {"type": "Feature", "properties": {"name": "Ekongahaku", "place": "village", "osm_layer": "settlements"}, "geometry": {"type": "Point", "coordinates": [8.6232588, 5.0564507]}}, {"type": "Feature", "properties": {"name": "Ekukata", "place": "village", "osm_layer": "settlements"}, "geometry": {"type": "Point", "coordinates": [8.8789, 5.8568849]}}, {"type": "Feature", "properties": {"name": "Gwagwari", "place": "village", "osm_layer": "settlements"}, "geometry": {"type": "Point", "coordinates": [12.1215, 11.2459]}}, {"type": "Feature", "properties": {"name": "Fai", "place": "village", "osm_layer": "settlements"}, "geometry": {"type": "Point", "coordinates": [12.664993, 11.294517]}}, {"type": "Feature", "properties": {"name": "Mkpani", "place": "town", "osm_layer": "settlements"}, "geometry": {"type": "Point", "coordinates": [8.1572605, 5.82345]}}, {"type": "Feature", "properties": {"name": "Gashua", "place": "city", "osm_layer": "settlements"}, "geometry": {"type": "Point", "coordinates": [11.0387809, 12.8728546]}}, {"type": "Feature", "properties": {"name": "Garin Alkali", "place": "village", "osm_layer": "settlements"}, "geometry": {"type": "Point", "coordinates": [11.0660442, 12.8369138]}}, {"type": "Feature", "properties": {"name": "Nachi", "place": "town", "osm_layer": "settlements"}, "geometry": {"type": "Point", "coordinates": [7.3386, 6.2848]}}, {"type": "Feature", "properties": {"name": "Umuka", "place": "village", "osm_layer": "settlements"}, "geometry": {"type": "Point", "coordinates": [7.8835, 6.0144]}}, {"type": "Feature", "properties": {"name": "Nallewa", "place": "village", "osm_layer": "settlements"}, "geometry": {"type": "Point", "coordinates": [11.8933, 12.7518]}}, {"type": "Feature", "properties": {"name": "Damaia", "place": "village", "osm_layer": "settlements"}, "geometry": {"type": "Point", "coordinates": [11.5375783, 12.7957158]}}, {"type": "Feature", "properties": {"name": "Nwofia", "place": "village", "osm_layer": "settlements"}, "geometry": {"type": "Point", "coordinates": [7.0161, 6.1882]}}, {"type": "Feature", "properties": {"name": "Ago-Oka", "place": "village", "osm_layer": "settlements"}, "geometry": {"type": "Point", "coordinates": [5.6837, 7.332]}}, {"type": "Feature", "properties": {"name": "Umualu Ugwoioba", "place": "village", "osm_layer": "settlements"}, "geometry": {"type": "Point", "coordinates": [7.1665, 6.2443]}}, {"type": "Feature", "properties": {"name": "Ago-Julia", "place": "village", "osm_layer": "settlements"}, "geometry": {"type": "Point", "coordinates": [5.0095, 7.2881]}}, {"type": "Feature", "properties": {"name": "Ode Oke", "place": "village", "osm_layer": "settlements"}, "geometry": {"type": "Point", "coordinates": [5.0348135, 7.935224]}}, {"type": "Feature", "properties": {"name": "Umuezeaka", "place": "village", "osm_layer": "settlements"}, "geometry": {"type": "Point", "coordinates": [7.9733858, 6.196866]}}, {"type": "Feature", "properties": {"name": "Nara Unateze", "place": "village", "osm_layer": "settlements"}, "geometry": {"type": "Point", "coordinates": [7.655137, 6.2139215]}}, {"type": "Feature", "properties": {"name": "Umulokpa", "place": "village", "osm_layer": "settlements"}, "geometry": {"type": "Point", "coordinates": [7.1002, 6.5062]}}, {"type": "Feature", "properties": {"name": "Awaiye", "place": "village", "osm_layer": "settlements"}, "geometry": {"type": "Point", "coordinates": [5.1449204, 7.0178963]}}, {"type": "Feature", "properties": {"name": "Ugwaka", "place": "village", "osm_layer": "settlements"}, "geometry": {"type": "Point", "coordinates": [7.2386, 6.946]}}, {"type": "Feature", "properties": {"name": "Aifam", "place": "village", "osm_layer": "settlements"}, "geometry": {"type": "Point", "coordinates": [7.7202, 6.9775]}}, {"type": "Feature", "properties": {"name": "Uburu", "place": "village", "osm_layer": "settlements"}, "geometry": {"type": "Point", "coordinates": [7.7692054, 6.044504]}}, {"type": "Feature", "properties": {"name": "Owena-Egbeda", "place": "village", "osm_layer": "settlements"}, "geometry": {"type": "Point", "coordinates": [5.0187, 7.0065]}}, {"type": "Feature", "properties": {"name": "Abababubu", "place": "village", "osm_layer": "settlements"}, "geometry": {"type": "Point", "coordinates": [5.0093715, 7.0953116]}}, {"type": "Feature", "properties": {"name": "Obatedo", "place": "village", "osm_layer": "settlements"}, "geometry": {"type": "Point", "coordinates": [5.0435387, 7.1055805]}}, {"type": "Feature", "properties": {"name": "Okpon", "place": "village", "osm_layer": "settlements"}, "geometry": {"type": "Point", "coordinates": [8.414, 5.1465]}}, {"type": "Feature", "properties": {"name": "Ndon Nwong", "place": "village", "osm_layer": "settlements"}, "geometry": {"type": "Point", "coordinates": [8.169, 5.195]}}, {"type": "Feature", "properties": {"name": "Nkpan Uruk", "place": "village", "osm_layer": "settlements"}, "geometry": {"type": "Point", "coordinates": [8.076203, 5.2165655]}}, {"type": "Feature", "properties": {"name": "Okorroba", "place": "village", "osm_layer": "settlements"}, "geometry": {"type": "Point", "coordinates": [8.8225039, 5.6053752]}}, {"type": "Feature", "properties": {"name": "Fulatari", "place": "village", "osm_layer": "settlements"}, "geometry": {"type": "Point", "coordinates": [11.1493, 12.0668]}}, {"type": "Feature", "properties": {"name": "Madawun", "place": "village", "osm_layer": "settlements"}, "geometry": {"type": "Point", "coordinates": [11.030807, 12.1099393]}}, {"type": "Feature", "properties": {"name": "Bindigi", "place": "village", "osm_layer": "settlements"}, "geometry": {"type": "Point", "coordinates": [11.2496757, 12.1848625]}}, {"type": "Feature", "properties": {"name": "Mgbaukwu", "place": "village", "osm_layer": "settlements"}, "geometry": {"type": "Point", "coordinates": [7.0744, 6.1426]}}, {"type": "Feature", "properties": {"name": "Ilemo", "place": "village", "osm_layer": "settlements"}, "geometry": {"type": "Point", "coordinates": [5.0995301, 7.0793838]}}, {"type": "Feature", "properties": {"name": "Ago Aduloju", "place": "village", "osm_layer": "settlements"}, "geometry": {"type": "Point", "coordinates": [5.3330015, 7.603812]}}, {"type": "Feature", "properties": {"name": "Oba", "place": "town", "osm_layer": "settlements"}, "geometry": {"type": "Point", "coordinates": [5.7249718, 7.3730155]}}, {"type": "Feature", "properties": {"name": "Akungba", "place": "village", "osm_layer": "settlements"}, "geometry": {"type": "Point", "coordinates": [5.7361985, 7.4696003]}}, {"type": "Feature", "properties": {"name": "Owom", "place": "village", "osm_layer": "settlements"}, "geometry": {"type": "Point", "coordinates": [8.7981344, 5.5461337]}}, {"type": "Feature", "properties": {"name": "Ndebiji", "place": "village", "osm_layer": "settlements"}, "geometry": {"type": "Point", "coordinates": [8.8214716, 5.5878899]}}, {"type": "Feature", "properties": {"name": "Obudu", "place": "town", "osm_layer": "settlements"}, "geometry": {"type": "Point", "coordinates": [9.1684558, 6.6682429]}}, {"type": "Feature", "properties": {"name": "Ireje", "place": "village", "osm_layer": "settlements"}, "geometry": {"type": "Point", "coordinates": [5.2524267, 7.5955366]}}, {"type": "Feature", "properties": {"name": "Nyakasang", "place": "village", "osm_layer": "settlements"}, "geometry": {"type": "Point", "coordinates": [8.2116, 5.1395]}}, {"type": "Feature", "properties": {"name": "Onyen Okpon", "place": "village", "osm_layer": "settlements"}, "geometry": {"type": "Point", "coordinates": [8.4727092, 5.9748775]}}, {"type": "Feature", "properties": {"name": "Akpoha-Igbo", "place": "village", "osm_layer": "settlements"}, "geometry": {"type": "Point", "coordinates": [8.0122345, 5.992937]}}, {"type": "Feature", "properties": {"name": "Neni", "place": "town", "osm_layer": "settlements"}, "geometry": {"type": "Point", "coordinates": [7.0047316, 6.0826886]}}, {"type": "Feature", "properties": {"name": "Ogologo-Olo", "place": "village", "osm_layer": "settlements"}, "geometry": {"type": "Point", "coordinates": [7.1499795, 6.4095745]}}, {"type": "Feature", "properties": {"name": "Umundu", "place": "village", "osm_layer": "settlements"}, "geometry": {"type": "Point", "coordinates": [7.4940778, 6.8869334]}}, {"type": "Feature", "properties": {"name": "Bimi", "place": "village", "osm_layer": "settlements"}, "geometry": {"type": "Point", "coordinates": [12.9338718, 11.7619978]}}, {"type": "Feature", "properties": {"name": "Ndebiji", "place": "village", "osm_layer": "settlements"}, "geometry": {"type": "Point", "coordinates": [8.8119533, 5.4209302]}}, {"type": "Feature", "properties": {"name": "Ewe", "place": "village", "osm_layer": "settlements"}, "geometry": {"type": "Point", "coordinates": [8.0046915, 5.436713]}}, {"type": "Feature", "properties": {"name": "Umudim", "place": "village", "osm_layer": "settlements"}, "geometry": {"type": "Point", "coordinates": [7.3846796, 6.3364184]}}, {"type": "Feature", "properties": {"name": "Wasaram Lawan", "place": "village", "osm_layer": "settlements"}, "geometry": {"type": "Point", "coordinates": [12.3199558, 11.6321474]}}, {"type": "Feature", "properties": {"name": "Ochon", "place": "village", "osm_layer": "settlements"}, "geometry": {"type": "Point", "coordinates": [8.4413, 5.9332]}}, {"type": "Feature", "properties": {"name": "Iwuru Obiontan", "place": "village", "osm_layer": "settlements"}, "geometry": {"type": "Point", "coordinates": [8.1768115, 5.420663]}}, {"type": "Feature", "properties": {"name": "Zokoja", "place": "village", "osm_layer": "settlements"}, "geometry": {"type": "Point", "coordinates": [6.7430045, 7.802359]}}, {"type": "Feature", "properties": {"name": "Etikumi", "place": "village", "osm_layer": "settlements"}, "geometry": {"type": "Point", "coordinates": [8.3967262, 5.3195269]}}, {"type": "Feature", "properties": {"name": "Masta Fanameri", "place": "village", "osm_layer": "settlements"}, "geometry": {"type": "Point", "coordinates": [12.99, 11.5324]}}, {"type": "Feature", "properties": {"name": "Singiokolo Creek", "place": "village", "osm_layer": "settlements"}, "geometry": {"type": "Point", "coordinates": [3.036096, 6.6213525]}}, {"type": "Feature", "properties": {"name": "Egorbiri", "place": "village", "osm_layer": "settlements"}, "geometry": {"type": "Point", "coordinates": [6.594623, 4.809369]}}, {"type": "Feature", "properties": {"name": "Eredo", "place": "village", "osm_layer": "settlements"}, "geometry": {"type": "Point", "coordinates": [3.9898394, 6.6423569]}}, {"type": "Feature", "properties": {"name": "Dogon Daji", "place": "village", "osm_layer": "settlements"}, "geometry": {"type": "Point", "coordinates": [9.2026636, 10.1246669]}}, {"type": "Feature", "properties": {"name": "Iole", "place": "village", "osm_layer": "settlements"}, "geometry": {"type": "Point", "coordinates": [7.5593857, 7.9504776]}}, {"type": "Feature", "properties": {"name": "Lashilaw", "place": "village", "osm_layer": "settlements"}, "geometry": {"type": "Point", "coordinates": [2.933333, 7.083333]}}, {"type": "Feature", "properties": {"name": "Bode Ase", "place": "village", "osm_layer": "settlements"}, "geometry": {"type": "Point", "coordinates": [2.766667, 6.55]}}, {"type": "Feature", "properties": {"name": "Arogun", "place": "village", "osm_layer": "settlements"}, "geometry": {"type": "Point", "coordinates": [3.4488135, 6.85328]}}, {"type": "Feature", "properties": {"name": "Isan Town", "place": "village", "osm_layer": "settlements"}, "geometry": {"type": "Point", "coordinates": [3.6756969, 6.5180735]}}, {"type": "Feature", "properties": {"name": "Gubio", "place": "town", "osm_layer": "settlements"}, "geometry": {"type": "Point", "coordinates": [12.7821926, 12.4978949]}}, {"type": "Feature", "properties": {"name": "Dekina", "place": "village", "osm_layer": "settlements"}, "geometry": {"type": "Point", "coordinates": [7.0333153, 7.6887069]}}, {"type": "Feature", "properties": {"name": "Iyare", "place": "village", "osm_layer": "settlements"}, "geometry": {"type": "Point", "coordinates": [6.5439975, 7.0398113]}}, {"type": "Feature", "properties": {"name": "Ofokopi", "place": "village", "osm_layer": "settlements"}, "geometry": {"type": "Point", "coordinates": [6.973673, 7.2785]}}, {"type": "Feature", "properties": {"name": "Edipe Eke", "place": "village", "osm_layer": "settlements"}, "geometry": {"type": "Point", "coordinates": [7.568902, 7.126303]}}, {"type": "Feature", "properties": {"name": "Gbagede", "place": "village", "osm_layer": "settlements"}, "geometry": {"type": "Point", "coordinates": [6.7784721, 7.6994931]}}, {"type": "Feature", "properties": {"name": "Agbado", "place": "village", "osm_layer": "settlements"}, "geometry": {"type": "Point", "coordinates": [6.2681, 7.9185]}}, {"type": "Feature", "properties": {"name": "Gbashemo", "place": "village", "osm_layer": "settlements"}, "geometry": {"type": "Point", "coordinates": [3.65, 7.033333]}}, {"type": "Feature", "properties": {"name": "Olodo", "place": "village", "osm_layer": "settlements"}, "geometry": {"type": "Point", "coordinates": [3.6126007, 7.2975619]}}, {"type": "Feature", "properties": {"name": "Efafo", "place": "village", "osm_layer": "settlements"}, "geometry": {"type": "Point", "coordinates": [7.7047, 7.1961]}}, {"type": "Feature", "properties": {"name": "Emichi", "place": "village", "osm_layer": "settlements"}, "geometry": {"type": "Point", "coordinates": [7.9303, 7.2473]}}, {"type": "Feature", "properties": {"name": "Falodun", "place": "village", "osm_layer": "settlements"}, "geometry": {"type": "Point", "coordinates": [5.566667, 6.75]}}, {"type": "Feature", "properties": {"name": "Filele", "place": "village", "osm_layer": "settlements"}, "geometry": {"type": "Point", "coordinates": [6.7241, 7.8518]}}, {"type": "Feature", "properties": {"name": "Bitoa", "place": "village", "osm_layer": "settlements"}, "geometry": {"type": "Point", "coordinates": [11.4532205, 13.3440627]}}, {"type": "Feature", "properties": {"name": "Wnioke", "place": "village", "osm_layer": "settlements"}, "geometry": {"type": "Point", "coordinates": [6.3289, 7.159]}}, {"type": "Feature", "properties": {"name": "Imakebu", "place": "village", "osm_layer": "settlements"}, "geometry": {"type": "Point", "coordinates": [6.4366, 7.2118]}}, {"type": "Feature", "properties": {"name": "Idominasi", "place": "village", "osm_layer": "settlements"}, "geometry": {"type": "Point", "coordinates": [4.7, 7.683333]}}, {"type": "Feature", "properties": {"name": "Baala", "place": "village", "osm_layer": "settlements"}, "geometry": {"type": "Point", "coordinates": [3.533333, 7.15]}}, {"type": "Feature", "properties": {"name": "Igan", "place": "village", "osm_layer": "settlements"}, "geometry": {"type": "Point", "coordinates": [2.9028623, 7.0601513]}}, {"type": "Feature", "properties": {"name": "Isokwe", "place": "village", "osm_layer": "settlements"}, "geometry": {"type": "Point", "coordinates": [6.4499, 7.2139]}}, {"type": "Feature", "properties": {"name": "Arugaga", "place": "hamlet", "osm_layer": "settlements"}, "geometry": {"type": "Point", "coordinates": [6.8076, 7.4824]}}, {"type": "Feature", "properties": {"name": "Kewo", "place": "village", "osm_layer": "settlements"}, "geometry": {"type": "Point", "coordinates": [4.766667, 7.883333]}}, {"type": "Feature", "properties": {"name": "Igarra", "place": "village", "osm_layer": "settlements"}, "geometry": {"type": "Point", "coordinates": [6.0878, 7.2826833]}}, {"type": "Feature", "properties": {"name": "Agudakiri", "place": "village", "osm_layer": "settlements"}, "geometry": {"type": "Point", "coordinates": [6.6871147, 4.4042666]}}, {"type": "Feature", "properties": {"name": "Lukosi", "place": "village", "osm_layer": "settlements"}, "geometry": {"type": "Point", "coordinates": [4.583333, 7.366667]}}, {"type": "Feature", "properties": {"name": "Abule Alfa", "place": "village", "osm_layer": "settlements"}, "geometry": {"type": "Point", "coordinates": [2.9671723, 6.7993227]}}, {"type": "Feature", "properties": {"name": "Ologundu", "place": "village", "osm_layer": "settlements"}, "geometry": {"type": "Point", "coordinates": [4.866667, 7.266667]}}, {"type": "Feature", "properties": {"name": "Kupti", "place": "hamlet", "osm_layer": "settlements"}, "geometry": {"type": "Point", "coordinates": [12.5191, 12.3379]}}, {"type": "Feature", "properties": {"name": "Ipaja", "place": "village", "osm_layer": "settlements"}, "geometry": {"type": "Point", "coordinates": [2.882566, 6.8210487]}}, {"type": "Feature", "properties": {"name": "Tirwun", "place": "village", "osm_layer": "settlements"}, "geometry": {"type": "Point", "coordinates": [9.8831567, 10.3582418]}}, {"type": "Feature", "properties": {"name": "Abudo", "place": "village", "osm_layer": "settlements"}, "geometry": {"type": "Point", "coordinates": [4.4, 7.816667]}}, {"type": "Feature", "properties": {"name": "Uokha", "place": "village", "osm_layer": "settlements"}, "geometry": {"type": "Point", "coordinates": [6.0449, 7.0739]}}, {"type": "Feature", "properties": {"name": "Afana", "place": "village", "osm_layer": "settlements"}, "geometry": {"type": "Point", "coordinates": [6.3912259, 7.1398353]}}, {"type": "Feature", "properties": {"name": "Meke", "place": "village", "osm_layer": "settlements"}, "geometry": {"type": "Point", "coordinates": [6.2587834, 7.1299437]}}, {"type": "Feature", "properties": {"name": "Magu", "place": "hamlet", "osm_layer": "settlements"}, "geometry": {"type": "Point", "coordinates": [6.7964, 7.4833]}}, {"type": "Feature", "properties": {"name": "Banimgbe", "place": "village", "osm_layer": "settlements"}, "geometry": {"type": "Point", "coordinates": [2.883333, 6.516667]}}, {"type": "Feature", "properties": {"name": "Ijegge", "place": "village", "osm_layer": "settlements"}, "geometry": {"type": "Point", "coordinates": [7.829129, 7.712981]}}, {"type": "Feature", "properties": {"name": "Oshigbudu", "place": "village", "osm_layer": "settlements"}, "geometry": {"type": "Point", "coordinates": [7.870481, 7.83008]}}, {"type": "Feature", "properties": {"name": "Sabo", "place": "village", "osm_layer": "settlements"}, "geometry": {"type": "Point", "coordinates": [3.316667, 7.166667]}}, {"type": "Feature", "properties": {"name": "Atani Aro", "place": "village", "osm_layer": "settlements"}, "geometry": {"type": "Point", "coordinates": [7.883339, 5.4000487]}}, {"type": "Feature", "properties": {"name": "Kobejo", "place": "village", "osm_layer": "settlements"}, "geometry": {"type": "Point", "coordinates": [2.766667, 6.916667]}}, {"type": "Feature", "properties": {"name": "Ijomu", "place": "village", "osm_layer": "settlements"}, "geometry": {"type": "Point", "coordinates": [2.95, 6.616667]}}, {"type": "Feature", "properties": {"name": "Binduldul", "place": "hamlet", "osm_layer": "settlements"}, "geometry": {"type": "Point", "coordinates": [12.5909217, 12.7441082]}}, {"type": "Feature", "properties": {"name": "Zirgi Ngelewa", "place": "hamlet", "osm_layer": "settlements"}, "geometry": {"type": "Point", "coordinates": [12.404425, 12.5627525]}}, {"type": "Feature", "properties": {"name": "Ayibobiri", "place": "village", "osm_layer": "settlements"}, "geometry": {"type": "Point", "coordinates": [6.2576669, 5.0803778]}}, {"type": "Feature", "properties": {"name": "Dabira", "place": "village", "osm_layer": "settlements"}, "geometry": {"type": "Point", "coordinates": [12.5338472, 12.5825467]}}, {"type": "Feature", "properties": {"name": "Erema", "place": "village", "osm_layer": "settlements"}, "geometry": {"type": "Point", "coordinates": [6.7, 5.216667]}}, {"type": "Feature", "properties": {"name": "Mbiakpaba", "place": "village", "osm_layer": "settlements"}, "geometry": {"type": "Point", "coordinates": [6.2661036, 4.5660966]}}, {"type": "Feature", "properties": {"name": "Iro", "place": "village", "osm_layer": "settlements"}, "geometry": {"type": "Point", "coordinates": [3.366667, 6.883333]}}, {"type": "Feature", "properties": {"name": "Oje", "place": "village", "osm_layer": "settlements"}, "geometry": {"type": "Point", "coordinates": [3.1, 7.333333]}}, {"type": "Feature", "properties": {"name": "Kodera", "place": "village", "osm_layer": "settlements"}, "geometry": {"type": "Point", "coordinates": [2.8, 7.05]}}, {"type": "Feature", "properties": {"name": "Ewokiri", "place": "village", "osm_layer": "settlements"}, "geometry": {"type": "Point", "coordinates": [6.3491549, 4.568615]}}, {"type": "Feature", "properties": {"name": "Mangungum", "place": "hamlet", "osm_layer": "settlements"}, "geometry": {"type": "Point", "coordinates": [12.33624, 12.2518143]}}, {"type": "Feature", "properties": {"name": "Kundum", "place": "village", "osm_layer": "settlements"}, "geometry": {"type": "Point", "coordinates": [9.6476753, 10.4391755]}}, {"type": "Feature", "properties": {"name": "Katti Kime", "place": "hamlet", "osm_layer": "settlements"}, "geometry": {"type": "Point", "coordinates": [12.1905106, 12.0985649]}}, {"type": "Feature", "properties": {"name": "Ikoga", "place": "town", "osm_layer": "settlements"}, "geometry": {"type": "Point", "coordinates": [2.9516418, 6.5168761]}}, {"type": "Feature", "properties": {"name": "Oloparun", "place": "village", "osm_layer": "settlements"}, "geometry": {"type": "Point", "coordinates": [2.933333, 6.9]}}, {"type": "Feature", "properties": {"name": "Galagara", "place": "village", "osm_layer": "settlements"}, "geometry": {"type": "Point", "coordinates": [9.374829, 10.104109]}}, {"type": "Feature", "properties": {"name": "Okarki", "place": "village", "osm_layer": "settlements"}, "geometry": {"type": "Point", "coordinates": [6.429248, 4.9831176]}}, {"type": "Feature", "properties": {"name": "Odekiri", "place": "village", "osm_layer": "settlements"}, "geometry": {"type": "Point", "coordinates": [6.5090947, 4.6672503]}}, {"type": "Feature", "properties": {"name": "Owinkiri Kalama", "place": "village", "osm_layer": "settlements"}, "geometry": {"type": "Point", "coordinates": [6.8339325, 4.737763]}}, {"type": "Feature", "properties": {"name": "Abessa", "place": "village", "osm_layer": "settlements"}, "geometry": {"type": "Point", "coordinates": [6.5366209, 4.9586222]}}, {"type": "Feature", "properties": {"name": "Ubaha Oloko", "place": "village", "osm_layer": "settlements"}, "geometry": {"type": "Point", "coordinates": [7.5, 5.366667]}}, {"type": "Feature", "properties": {"name": "Laru", "place": "hamlet", "osm_layer": "settlements"}, "geometry": {"type": "Point", "coordinates": [9.0330517, 10.2289197]}}, {"type": "Feature", "properties": {"name": "Uma", "place": "village", "osm_layer": "settlements"}, "geometry": {"type": "Point", "coordinates": [8.8545, 7.1128]}}, {"type": "Feature", "properties": {"name": "Kari", "place": "town", "osm_layer": "settlements"}, "geometry": {"type": "Point", "coordinates": [10.5590089, 11.2434723]}}, {"type": "Feature", "properties": {"name": "Nyutsa", "place": "village", "osm_layer": "settlements"}, "geometry": {"type": "Point", "coordinates": [8.5685475, 7.9620762]}}, {"type": "Feature", "properties": {"name": "Iliyasu", "place": "village", "osm_layer": "settlements"}, "geometry": {"type": "Point", "coordinates": [10.4452225, 11.0537595]}}, {"type": "Feature", "properties": {"name": "Ortaver", "place": "village", "osm_layer": "settlements"}, "geometry": {"type": "Point", "coordinates": [8.5752301, 7.9362378]}}, {"type": "Feature", "properties": {"name": "Mallemadigo", "place": "village", "osm_layer": "settlements"}, "geometry": {"type": "Point", "coordinates": [10.2148, 11.9596]}}, {"type": "Feature", "properties": {"name": "Gawani", "place": "village", "osm_layer": "settlements"}, "geometry": {"type": "Point", "coordinates": [9.5655126, 10.0981507]}}, {"type": "Feature", "properties": {"name": "Yaor Caro", "place": "village", "osm_layer": "settlements"}, "geometry": {"type": "Point", "coordinates": [8.6553, 7.7071]}}, {"type": "Feature", "properties": {"name": "Zanko", "place": "village", "osm_layer": "settlements"}, "geometry": {"type": "Point", "coordinates": [8.0726, 7.5302]}}, {"type": "Feature", "properties": {"name": "Keri", "place": "village", "osm_layer": "settlements"}, "geometry": {"type": "Point", "coordinates": [8.3481387, 12.5964407]}}, {"type": "Feature", "properties": {"name": "Orhemen Amire", "place": "village", "osm_layer": "settlements"}, "geometry": {"type": "Point", "coordinates": [8.909, 7.6274]}}, {"type": "Feature", "properties": {"name": "Boju-Ega", "place": "town", "osm_layer": "settlements"}, "geometry": {"type": "Point", "coordinates": [8.044698, 7.348151]}}, {"type": "Feature", "properties": {"name": "Gando", "place": "village", "osm_layer": "settlements"}, "geometry": {"type": "Point", "coordinates": [8.8469, 7.6122]}}, {"type": "Feature", "properties": {"name": "Akoro", "place": "hamlet", "osm_layer": "settlements"}, "geometry": {"type": "Point", "coordinates": [8.0251, 7.8483]}}, {"type": "Feature", "properties": {"name": "Karaye", "place": "village", "osm_layer": "settlements"}, "geometry": {"type": "Point", "coordinates": [4.2725668, 12.0296662]}}, {"type": "Feature", "properties": {"name": "Kamakawo", "place": "village", "osm_layer": "settlements"}, "geometry": {"type": "Point", "coordinates": [4.0020057, 12.1239705]}}, {"type": "Feature", "properties": {"name": "Kamagama", "place": "village", "osm_layer": "settlements"}, "geometry": {"type": "Point", "coordinates": [4.8667778, 12.7348456]}}, {"type": "Feature", "properties": {"name": "Kaikayaje", "place": "village", "osm_layer": "settlements"}, "geometry": {"type": "Point", "coordinates": [4.1939825, 12.560194]}}, {"type": "Feature", "properties": {"name": "Danca", "place": "village", "osm_layer": "settlements"}, "geometry": {"type": "Point", "coordinates": [4.4233052, 12.7919045]}}, {"type": "Feature", "properties": {"name": "Dalwa", "place": "village", "osm_layer": "settlements"}, "geometry": {"type": "Point", "coordinates": [4.3437703, 12.9765142]}}, {"type": "Feature", "properties": {"name": "Dahole", "place": "village", "osm_layer": "settlements"}, "geometry": {"type": "Point", "coordinates": [4.0091952, 12.4216486]}}, {"type": "Feature", "properties": {"name": "Mesani", "place": "village", "osm_layer": "settlements"}, "geometry": {"type": "Point", "coordinates": [4.4735522, 12.5358901]}}, {"type": "Feature", "properties": {"name": "Gunbiri", "place": "village", "osm_layer": "settlements"}, "geometry": {"type": "Point", "coordinates": [4.1077718, 12.1701628]}}, {"type": "Feature", "properties": {"name": "Tunga Lele", "place": "village", "osm_layer": "settlements"}, "geometry": {"type": "Point", "coordinates": [4.1145316, 12.1603435]}}, {"type": "Feature", "properties": {"name": "Tungan Sauna", "place": "village", "osm_layer": "settlements"}, "geometry": {"type": "Point", "coordinates": [4.116544, 12.1466289]}}, {"type": "Feature", "properties": {"name": "Rafin-Naginai", "place": "village", "osm_layer": "settlements"}, "geometry": {"type": "Point", "coordinates": [4.221519, 12.0977532]}}, {"type": "Feature", "properties": {"name": "Runto", "place": "village", "osm_layer": "settlements"}, "geometry": {"type": "Point", "coordinates": [4.0465128, 12.1117128]}}, {"type": "Feature", "properties": {"name": "Gangara", "place": "village", "osm_layer": "settlements"}, "geometry": {"type": "Point", "coordinates": [6.027537, 11.3971598]}}, {"type": "Feature", "properties": {"name": "Dutsin Kura Sauri", "place": "village", "osm_layer": "settlements"}, "geometry": {"type": "Point", "coordinates": [6.7562959, 11.6717138]}}, {"type": "Feature", "properties": {"name": "Katu", "place": "village", "osm_layer": "settlements"}, "geometry": {"type": "Point", "coordinates": [4.2676065, 11.8917113]}}, {"type": "Feature", "properties": {"name": "Sharifuri", "place": "village", "osm_layer": "settlements"}, "geometry": {"type": "Point", "coordinates": [10.5701512, 10.3164761]}}, {"type": "Feature", "properties": {"name": "Jebga", "place": "village", "osm_layer": "settlements"}, "geometry": {"type": "Point", "coordinates": [4.841767, 12.1209067]}}, {"type": "Feature", "properties": {"name": "Illela", "place": "village", "osm_layer": "settlements"}, "geometry": {"type": "Point", "coordinates": [4.3037261, 12.2545566]}}, {"type": "Feature", "properties": {"name": "Busawa", "place": "village", "osm_layer": "settlements"}, "geometry": {"type": "Point", "coordinates": [4.9349359, 12.544921]}}, {"type": "Feature", "properties": {"name": "Birnin Malam", "place": "village", "osm_layer": "settlements"}, "geometry": {"type": "Point", "coordinates": [4.5371391, 12.1255173]}}, {"type": "Feature", "properties": {"name": "Maitsari", "place": "village", "osm_layer": "settlements"}, "geometry": {"type": "Point", "coordinates": [4.5302391, 12.4574419]}}, {"type": "Feature", "properties": {"name": "Bawada", "place": "village", "osm_layer": "settlements"}, "geometry": {"type": "Point", "coordinates": [4.5077721, 12.4470982]}}, {"type": "Feature", "properties": {"name": "Abdul Rahini", "place": "village", "osm_layer": "settlements"}, "geometry": {"type": "Point", "coordinates": [4.527749, 12.3937486]}}, {"type": "Feature", "properties": {"name": "Road Camp", "place": "village", "osm_layer": "settlements"}, "geometry": {"type": "Point", "coordinates": [4.5511509, 12.3466111]}}, {"type": "Feature", "properties": {"name": "Bamungadi", "place": "village", "osm_layer": "settlements"}, "geometry": {"type": "Point", "coordinates": [4.2099433, 12.1738013]}}, {"type": "Feature", "properties": {"name": "Doka Yonga", "place": "village", "osm_layer": "settlements"}, "geometry": {"type": "Point", "coordinates": [6.4434309, 11.287651]}}, {"type": "Feature", "properties": {"name": "Doka", "place": "village", "osm_layer": "settlements"}, "geometry": {"type": "Point", "coordinates": [6.3062682, 11.457788]}}, {"type": "Feature", "properties": {"name": "Ugborikoko", "place": "village", "osm_layer": "settlements"}, "geometry": {"type": "Point", "coordinates": [5.764538, 5.5370568]}}, {"type": "Feature", "properties": {"name": "Dungere", "place": "village", "osm_layer": "settlements"}, "geometry": {"type": "Point", "coordinates": [4.3449798, 11.2442458]}}, {"type": "Feature", "properties": {"name": "Ungwan Matangi", "place": "village", "osm_layer": "settlements"}, "geometry": {"type": "Point", "coordinates": [8.282243, 10.717575]}}, {"type": "Feature", "properties": {"name": "Gari Danteni", "place": "village", "osm_layer": "settlements"}, "geometry": {"type": "Point", "coordinates": [4.9754725, 11.5501304]}}, {"type": "Feature", "properties": {"name": "Gayewa", "place": "village", "osm_layer": "settlements"}, "geometry": {"type": "Point", "coordinates": [4.9256494, 11.5169635]}}, {"type": "Feature", "properties": {"name": "Shagiya", "place": "village", "osm_layer": "settlements"}, "geometry": {"type": "Point", "coordinates": [4.9886823, 11.3939459]}}, {"type": "Feature", "properties": {"name": "Makeri", "place": "village", "osm_layer": "settlements"}, "geometry": {"type": "Point", "coordinates": [4.9654156, 11.3746161]}}, {"type": "Feature", "properties": {"name": "Kadoli", "place": "village", "osm_layer": "settlements"}, "geometry": {"type": "Point", "coordinates": [10.7407667, 10.3044903]}}, {"type": "Feature", "properties": {"name": "Jerkam", "place": "village", "osm_layer": "settlements"}, "geometry": {"type": "Point", "coordinates": [10.9095338, 10.8042371]}}, {"type": "Feature", "properties": {"name": "Bungan Ningi", "place": "village", "osm_layer": "settlements"}, "geometry": {"type": "Point", "coordinates": [9.6383579, 11.0554086]}}, {"type": "Feature", "properties": {"name": "Harasawa", "place": "village", "osm_layer": "settlements"}, "geometry": {"type": "Point", "coordinates": [4.247217, 12.4272024]}}, {"type": "Feature", "properties": {"name": "Gwombe", "place": "village", "osm_layer": "settlements"}, "geometry": {"type": "Point", "coordinates": [4.7298147, 12.5283035]}}, {"type": "Feature", "properties": {"name": "Bayawa", "place": "village", "osm_layer": "settlements"}, "geometry": {"type": "Point", "coordinates": [4.6913041, 12.843949]}}, {"type": "Feature", "properties": {"name": "Bangara", "place": "village", "osm_layer": "settlements"}, "geometry": {"type": "Point", "coordinates": [4.629904, 12.8354277]}}, {"type": "Feature", "properties": {"name": "Masawari", "place": "village", "osm_layer": "settlements"}, "geometry": {"type": "Point", "coordinates": [4.7117974, 12.3315853]}}, {"type": "Feature", "properties": {"name": "Illela", "place": "village", "osm_layer": "settlements"}, "geometry": {"type": "Point", "coordinates": [4.7492167, 12.3919949]}}, {"type": "Feature", "properties": {"name": "Ungwan Dabagudu", "place": "village", "osm_layer": "settlements"}, "geometry": {"type": "Point", "coordinates": [4.7427209, 12.3664607]}}, {"type": "Feature", "properties": {"name": "Sofo-Birnin-Gwari", "place": "village", "osm_layer": "settlements"}, "geometry": {"type": "Point", "coordinates": [6.780358, 11.015374]}}, {"type": "Feature", "properties": {"name": "Bilbi", "place": "village", "osm_layer": "settlements"}, "geometry": {"type": "Point", "coordinates": [6.990841, 11.813276]}}, {"type": "Feature", "properties": {"name": "Angwan Nababa", "place": "village", "osm_layer": "settlements"}, "geometry": {"type": "Point", "coordinates": [6.5147162, 11.2267279]}}, {"type": "Feature", "properties": {"name": "Angwan Jikambara", "place": "village", "osm_layer": "settlements"}, "geometry": {"type": "Point", "coordinates": [6.5174496, 11.3892592]}}, {"type": "Feature", "properties": {"name": "Okrufor-Okpara", "place": "village", "osm_layer": "settlements"}, "geometry": {"type": "Point", "coordinates": [5.9462634, 5.6446754]}}, {"type": "Feature", "properties": {"name": "Ighwrenene", "place": "village", "osm_layer": "settlements"}, "geometry": {"type": "Point", "coordinates": [5.9888069, 5.5251941]}}, {"type": "Feature", "properties": {"name": "Shuni", "place": "village", "osm_layer": "settlements"}, "geometry": {"type": "Point", "coordinates": [5.2854565, 12.945926]}}, {"type": "Feature", "properties": {"name": "Ruwan Gora", "place": "village", "osm_layer": "settlements"}, "geometry": {"type": "Point", "coordinates": [5.8638857, 12.3702908]}}, {"type": "Feature", "properties": {"name": "Madara", "place": "village", "osm_layer": "settlements"}, "geometry": {"type": "Point", "coordinates": [4.8295636, 12.3713263]}}, {"type": "Feature", "properties": {"name": "Gumawa", "place": "village", "osm_layer": "settlements"}, "geometry": {"type": "Point", "coordinates": [4.2305365, 12.2940158]}}, {"type": "Feature", "properties": {"name": "Goru", "place": "village", "osm_layer": "settlements"}, "geometry": {"type": "Point", "coordinates": [4.1999093, 12.3968456]}}, {"type": "Feature", "properties": {"name": "Bagoni", "place": "village", "osm_layer": "settlements"}, "geometry": {"type": "Point", "coordinates": [4.4730995, 12.8176971]}}, {"type": "Feature", "properties": {"name": "Bagare", "place": "village", "osm_layer": "settlements"}, "geometry": {"type": "Point", "coordinates": [4.686042, 12.508862]}}, {"type": "Feature", "properties": {"name": "Samna", "place": "village", "osm_layer": "settlements"}, "geometry": {"type": "Point", "coordinates": [4.5799851, 12.8620545]}}, {"type": "Feature", "properties": {"name": "Tung Fara", "place": "village", "osm_layer": "settlements"}, "geometry": {"type": "Point", "coordinates": [4.724801, 12.4312228]}}, {"type": "Feature", "properties": {"name": "Kanawo Adarawa", "place": "village", "osm_layer": "settlements"}, "geometry": {"type": "Point", "coordinates": [4.6605612, 12.3221293]}}, {"type": "Feature", "properties": {"name": "Gidan Tudu", "place": "village", "osm_layer": "settlements"}, "geometry": {"type": "Point", "coordinates": [4.9046273, 12.4880923]}}, {"type": "Feature", "properties": {"name": "Gandu", "place": "village", "osm_layer": "settlements"}, "geometry": {"type": "Point", "coordinates": [4.8187821, 12.3720223]}}, {"type": "Feature", "properties": {"name": "Oporopogbene", "place": "village", "osm_layer": "settlements"}, "geometry": {"type": "Point", "coordinates": [5.9186853, 4.4824879]}}, {"type": "Feature", "properties": {"name": "Unguwar Masama", "place": "village", "osm_layer": "settlements"}, "geometry": {"type": "Point", "coordinates": [8.703408, 10.6688612]}}, {"type": "Feature", "properties": {"name": "Dogon Kade", "place": "village", "osm_layer": "settlements"}, "geometry": {"type": "Point", "coordinates": [4.407103, 11.3276977]}}, {"type": "Feature", "properties": {"name": "Tunga Zabaruma", "place": "village", "osm_layer": "settlements"}, "geometry": {"type": "Point", "coordinates": [4.3640305, 11.3067209]}}, {"type": "Feature", "properties": {"name": "Tangarawu", "place": "village", "osm_layer": "settlements"}, "geometry": {"type": "Point", "coordinates": [4.3861921, 11.2981543]}}, {"type": "Feature", "properties": {"name": "Tunga Mailafia", "place": "village", "osm_layer": "settlements"}, "geometry": {"type": "Point", "coordinates": [4.2732039, 11.3983988]}}, {"type": "Feature", "properties": {"name": "Babban Kwari", "place": "village", "osm_layer": "settlements"}, "geometry": {"type": "Point", "coordinates": [4.1491039, 12.0016172]}}, {"type": "Feature", "properties": {"name": "Tungar Zazzagawa", "place": "village", "osm_layer": "settlements"}, "geometry": {"type": "Point", "coordinates": [4.3673409, 12.7045906]}}, {"type": "Feature", "properties": {"name": "Dogon-Kade", "place": "village", "osm_layer": "settlements"}, "geometry": {"type": "Point", "coordinates": [4.9730653, 12.0616698]}}, {"type": "Feature", "properties": {"name": "Tudun Jatau", "place": "village", "osm_layer": "settlements"}, "geometry": {"type": "Point", "coordinates": [7.298329, 10.755465]}}, {"type": "Feature", "properties": {"name": "Ajasolo", "place": "village", "osm_layer": "settlements"}, "geometry": {"type": "Point", "coordinates": [5.5775603, 5.7897897]}}, {"type": "Feature", "properties": {"name": "Gelawa", "place": "village", "osm_layer": "settlements"}, "geometry": {"type": "Point", "coordinates": [4.6500086, 11.25734]}}, {"type": "Feature", "properties": {"name": "Tagwaye", "place": "village", "osm_layer": "settlements"}, "geometry": {"type": "Point", "coordinates": [8.5688643, 10.26707]}}, {"type": "Feature", "properties": {"name": "Rafi Alhaji", "place": "village", "osm_layer": "settlements"}, "geometry": {"type": "Point", "coordinates": [4.4786278, 11.3656432]}}, {"type": "Feature", "properties": {"name": "Homa", "place": "village", "osm_layer": "settlements"}, "geometry": {"type": "Point", "coordinates": [4.520369, 11.1658689]}}, {"type": "Feature", "properties": {"name": "Kurfa", "place": "village", "osm_layer": "settlements"}, "geometry": {"type": "Point", "coordinates": [4.9910752, 12.2044303]}}, {"type": "Feature", "properties": {"name": "Koya", "place": "village", "osm_layer": "settlements"}, "geometry": {"type": "Point", "coordinates": [4.9088173, 12.6538372]}}, {"type": "Feature", "properties": {"name": "Garam", "place": "village", "osm_layer": "settlements"}, "geometry": {"type": "Point", "coordinates": [4.7589433, 12.8026396]}}, {"type": "Feature", "properties": {"name": "Alwaza", "place": "village", "osm_layer": "settlements"}, "geometry": {"type": "Point", "coordinates": [4.4378157, 12.6191474]}}, {"type": "Feature", "properties": {"name": "Aljena", "place": "village", "osm_layer": "settlements"}, "geometry": {"type": "Point", "coordinates": [4.0113809, 12.7743497]}}, {"type": "Feature", "properties": {"name": "Aliero", "place": "town", "osm_layer": "settlements"}, "geometry": {"type": "Point", "coordinates": [4.4706915, 12.2882578]}}, {"type": "Feature", "properties": {"name": "Rafin Baona", "place": "village", "osm_layer": "settlements"}, "geometry": {"type": "Point", "coordinates": [4.3995921, 12.2727036]}}, {"type": "Feature", "properties": {"name": "Bayan Dutse", "place": "village", "osm_layer": "settlements"}, "geometry": {"type": "Point", "coordinates": [4.1922438, 12.0302155]}}, {"type": "Feature", "properties": {"name": "Rishi", "place": "village", "osm_layer": "settlements"}, "geometry": {"type": "Point", "coordinates": [8.9410787, 10.4787327]}}, {"type": "Feature", "properties": {"name": "Kebbe", "place": "town", "osm_layer": "settlements"}, "geometry": {"type": "Point", "coordinates": [4.7350925, 12.128802]}}, {"type": "Feature", "properties": {"name": "Gagawa", "place": "village", "osm_layer": "settlements"}, "geometry": {"type": "Point", "coordinates": [4.9512171, 12.7012646]}}, {"type": "Feature", "properties": {"name": "Gwarazo", "place": "village", "osm_layer": "settlements"}, "geometry": {"type": "Point", "coordinates": [4.4586295, 12.08967]}}, {"type": "Feature", "properties": {"name": "Fanadi", "place": "village", "osm_layer": "settlements"}, "geometry": {"type": "Point", "coordinates": [4.1242483, 12.0642796]}}, {"type": "Feature", "properties": {"name": "Gardi", "place": "village", "osm_layer": "settlements"}, "geometry": {"type": "Point", "coordinates": [4.0562393, 12.0891114]}}, {"type": "Feature", "properties": {"name": "Gandu", "place": "village", "osm_layer": "settlements"}, "geometry": {"type": "Point", "coordinates": [4.5497416, 12.6385278]}}, {"type": "Feature", "properties": {"name": "Turawa", "place": "village", "osm_layer": "settlements"}, "geometry": {"type": "Point", "coordinates": [4.9691559, 11.5608626]}}, {"type": "Feature", "properties": {"name": "Tungan-Doro", "place": "village", "osm_layer": "settlements"}, "geometry": {"type": "Point", "coordinates": [4.9114654, 11.5669624]}}, {"type": "Feature", "properties": {"name": "Zangala", "place": "village", "osm_layer": "settlements"}, "geometry": {"type": "Point", "coordinates": [10.78785, 10.722318]}}, {"type": "Feature", "properties": {"name": "Shabua", "place": "hamlet", "osm_layer": "settlements"}, "geometry": {"type": "Point", "coordinates": [9.8522145, 11.5109405]}}, {"type": "Feature", "properties": {"name": "Dimbogo", "place": "village", "osm_layer": "settlements"}, "geometry": {"type": "Point", "coordinates": [4.3317167, 12.2915093]}}, {"type": "Feature", "properties": {"name": "Dankanowa", "place": "village", "osm_layer": "settlements"}, "geometry": {"type": "Point", "coordinates": [4.4435431, 12.738184]}}, {"type": "Feature", "properties": {"name": "Otuofor", "place": "village", "osm_layer": "settlements"}, "geometry": {"type": "Point", "coordinates": [5.980642, 4.362924]}}, {"type": "Feature", "properties": {"name": "Tunga Hakimi Umaru", "place": "village", "osm_layer": "settlements"}, "geometry": {"type": "Point", "coordinates": [4.3275685, 11.0253163]}}, {"type": "Feature", "properties": {"name": "Salmonde", "place": "village", "osm_layer": "settlements"}, "geometry": {"type": "Point", "coordinates": [9.9629255, 11.2831805]}}, {"type": "Feature", "properties": {"name": "Ungwan Malam", "place": "village", "osm_layer": "settlements"}, "geometry": {"type": "Point", "coordinates": [4.476067, 12.5460752]}}, {"type": "Feature", "properties": {"name": "Baga Sakka", "place": "village", "osm_layer": "settlements"}, "geometry": {"type": "Point", "coordinates": [4.5798561, 12.2956837]}}, {"type": "Feature", "properties": {"name": "Bangannan", "place": "village", "osm_layer": "settlements"}, "geometry": {"type": "Point", "coordinates": [4.0013806, 12.301174]}}, {"type": "Feature", "properties": {"name": "Kulu", "place": "village", "osm_layer": "settlements"}, "geometry": {"type": "Point", "coordinates": [4.7514029, 11.6202249]}}, {"type": "Feature", "properties": {"name": "Tungan Kwokene", "place": "village", "osm_layer": "settlements"}, "geometry": {"type": "Point", "coordinates": [4.0413277, 11.5610245]}}, {"type": "Feature", "properties": {"name": "Kwanta", "place": "village", "osm_layer": "settlements"}, "geometry": {"type": "Point", "coordinates": [4.4060084, 11.7067925]}}, {"type": "Feature", "properties": {"name": "Tunga Alhaji", "place": "village", "osm_layer": "settlements"}, "geometry": {"type": "Point", "coordinates": [4.2561374, 11.4282651]}}, {"type": "Feature", "properties": {"name": "Ekete", "place": "village", "osm_layer": "settlements"}, "geometry": {"type": "Point", "coordinates": [5.8031183, 5.5063641]}}, {"type": "Feature", "properties": {"name": "Tongo", "place": "village", "osm_layer": "settlements"}, "geometry": {"type": "Point", "coordinates": [10.9339553, 10.3061654]}}, {"type": "Feature", "properties": {"name": "Gumbikure", "place": "village", "osm_layer": "settlements"}, "geometry": {"type": "Point", "coordinates": [4.2245375, 12.2461514]}}, {"type": "Feature", "properties": {"name": "Rumfa", "place": "village", "osm_layer": "settlements"}, "geometry": {"type": "Point", "coordinates": [4.1663311, 12.2118574]}}, {"type": "Feature", "properties": {"name": "Ogoba", "place": "village", "osm_layer": "settlements"}, "geometry": {"type": "Point", "coordinates": [5.3043157, 5.4963]}}, {"type": "Feature", "properties": {"name": "Tungin-Shakushe", "place": "village", "osm_layer": "settlements"}, "geometry": {"type": "Point", "coordinates": [4.821664, 11.7024657]}}, {"type": "Feature", "properties": {"name": "Runtu Magaji", "place": "village", "osm_layer": "settlements"}, "geometry": {"type": "Point", "coordinates": [4.8202528, 11.687244]}},