{"type": "FeatureCollection", "features": [{"type": "Feature", "properties": {"name": "Niamey", "place": "city", "osm_layer": "settlements"}, "geometry": {"type": "Point", "coordinates": [2.109823, 13.524834]}}, {"type": "Feature", "properties": {"name": "Dosso", "place": "city", "osm_layer": "settlements"}, "geometry": {"type": "Point", "coordinates": [3.1944647, 13.0496369]}}, {"type": "Feature", "properties": {"name": "\u2d30\u2d33\u2d30\u2d37\u2d3b\u2d63", "place": "city", "osm_layer": "settlements"}, "geometry": {"type": "Point", "coordinates": [7.990739, 16.972556]}}, {"type": "Feature", "properties": {"name": "Zinder", "place": "city", "osm_layer": "settlements"}, "geometry": {"type": "Point", "coordinates": [8.9891659, 13.8063421]}}, {"type": "Feature", "properties": {"name": "Maradi", "place": "city", "osm_layer": "settlements"}, "geometry": {"type": "Point", "coordinates": [7.102534, 13.501206]}}, {"type": "Feature", "properties": {"name": "Tahoua", "place": "city", "osm_layer": "settlements"}, "geometry": {"type": "Point", "coordinates": [5.262149, 14.889922]}}, {"type": "Feature", "properties": {"name": "Gaya", "place": "city", "osm_layer": "settlements"}, "geometry": {"type": "Point", "coordinates": [3.459885, 11.884754]}}, {"type": "Feature", "properties": {"name": "Arlit", "place": "city", "osm_layer": "settlements"}, "geometry": {"type": "Point", "coordinates": [7.393331, 18.739079]}}, {"type": "Feature", "properties": {"name": "Tessaoua", "place": "city", "osm_layer": "settlements"}, "geometry": {"type": "Point", "coordinates": [7.990456, 13.755513]}}, {"type": "Feature", "properties": {"name": "Dogondoutchi", "place": "city", "osm_layer": "settlements"}, "geometry": {"type": "Point", "coordinates": [4.0293627, 13.6411218]}}, {"type": "Feature", "properties": {"name": "Madaoua", "place": "city", "osm_layer": "settlements"}, "geometry": {"type": "Point", "coordinates": [5.9553, 14.0708]}}, {"type": "Feature", "properties": {"name": "Mayahi", "place": "city", "osm_layer": "settlements"}, "geometry": {"type": "Point", "coordinates": [7.672419, 13.953305]}}, {"type": "Feature", "properties": {"name": "Diffa", "place": "city", "osm_layer": "settlements"}, "geometry": {"type": "Point", "coordinates": [12.6136611, 13.3130749]}}, {"type": "Feature", "properties": {"name": "T\u00e9ra", "place": "city", "osm_layer": "settlements"}, "geometry": {"type": "Point", "coordinates": [0.756993, 14.0072677]}}, {"type": "Feature", "properties": {"name": "Mirriah", "place": "city", "osm_layer": "settlements"}, "geometry": {"type": "Point", "coordinates": [9.1585561, 13.7145507]}}, {"type": "Feature", "properties": {"name": "Tillab\u00e9ri", "place": "city", "osm_layer": "settlements"}, "geometry": {"type": "Point", "coordinates": [1.4546006, 14.2090125]}}, {"type": "Feature", "properties": {"name": "Magaria", "place": "city", "osm_layer": "settlements"}, "geometry": {"type": "Point", "coordinates": [8.9086775, 13.000948]}}, {"type": "Feature", "properties": {"name": "N\u2019Guigmi", "place": "city", "osm_layer": "settlements"}, "geometry": {"type": "Point", "coordinates": [13.113545, 14.253302]}}, {"type": "Feature", "properties": {"name": "Dakoro", "place": "city", "osm_layer": "settlements"}, "geometry": {"type": "Point", "coordinates": [6.7644526, 14.509465]}}, {"type": "Feature", "properties": {"name": "Ighalab\u00e9labene", "place": "village", "osm_layer": "settlements"}, "geometry": {"type": "Point", "coordinates": [8.9346835, 17.6418819]}}, {"type": "Feature", "properties": {"name": "Tad\u00e9laka", "place": "village", "osm_layer": "settlements"}, "geometry": {"type": "Point", "coordinates": [7.9791976, 15.5073865]}}, {"type": "Feature", "properties": {"name": "Kourboubou", "place": "village", "osm_layer": "settlements"}, "geometry": {"type": "Point", "coordinates": [7.8253584, 16.8811717]}}, {"type": "Feature", "properties": {"name": "Gorouol", "place": "village", "osm_layer": "settlements"}, "geometry": {"type": "Point", "coordinates": [0.250057, 14.6909036]}}, {"type": "Feature", "properties": {"name": "M\u00e9hana", "place": "village", "osm_layer": "settlements"}, "geometry": {"type": "Point", "coordinates": [1.1328198, 14.3937197]}}, {"type": "Feature", "properties": {"name": "Madama", "place": "town", "osm_layer": "settlements"}, "geometry": {"type": "Point", "coordinates": [13.6469273, 21.9469663]}}, {"type": "Feature", "properties": {"name": "Chirfa", "place": "town", "osm_layer": "settlements"}, "geometry": {"type": "Point", "coordinates": [12.3392875, 20.956151]}}, {"type": "Feature", "properties": {"name": "Bilma", "place": "city", "osm_layer": "settlements"}, "geometry": {"type": "Point", "coordinates": [12.91872, 18.69293]}}, {"type": "Feature", "properties": {"name": "S\u00e9gu\u00e9dine", "place": "town", "osm_layer": "settlements"}, "geometry": {"type": "Point", "coordinates": [12.9665987, 20.1962138]}}, {"type": "Feature", "properties": {"name": "Fachi", "place": "town", "osm_layer": "settlements"}, "geometry": {"type": "Point", "coordinates": [11.5846654, 18.1075779]}}, {"type": "Feature", "properties": {"name": "Kanya Goumbi Bannda", "place": "village", "osm_layer": "settlements"}, "geometry": {"type": "Point", "coordinates": [3.2437026, 14.1150853]}}, {"type": "Feature", "properties": {"name": "Gao Sabon Gari", "place": "village", "osm_layer": "settlements"}, "geometry": {"type": "Point", "coordinates": [3.3078722, 14.2289587]}}, {"type": "Feature", "properties": {"name": "G\u00e9zawa", "place": "village", "osm_layer": "settlements"}, "geometry": {"type": "Point", "coordinates": [8.7271008, 14.4406441]}}, {"type": "Feature", "properties": {"name": "Ouaji", "place": "village", "osm_layer": "settlements"}, "geometry": {"type": "Point", "coordinates": [5.5448315, 14.9632303]}}, {"type": "Feature", "properties": {"name": "Taza", "place": "village", "osm_layer": "settlements"}, "geometry": {"type": "Point", "coordinates": [5.2081585, 15.3612682]}}, {"type": "Feature", "properties": {"name": "T\u00e9baram", "place": "village", "osm_layer": "settlements"}, "geometry": {"type": "Point", "coordinates": [4.458323, 14.836062]}}, {"type": "Feature", "properties": {"name": "Diol\u00e9", "place": "village", "osm_layer": "settlements"}, "geometry": {"type": "Point", "coordinates": [2.0737215, 13.8700382]}}, {"type": "Feature", "properties": {"name": "Ouallam", "place": "city", "osm_layer": "settlements"}, "geometry": {"type": "Point", "coordinates": [2.084779, 14.315757]}}, {"type": "Feature", "properties": {"name": "Mangaiz\u00e9", "place": "town", "osm_layer": "settlements"}, "geometry": {"type": "Point", "coordinates": [1.953911, 14.6832096]}}, {"type": "Feature", "properties": {"name": "Sanyasou", "place": "hamlet", "osm_layer": "settlements"}, "geometry": {"type": "Point", "coordinates": [4.1610063, 13.9398858]}}, {"type": "Feature", "properties": {"name": "Danya", "place": "village", "osm_layer": "settlements"}, "geometry": {"type": "Point", "coordinates": [4.2750368, 13.9663618]}}, {"type": "Feature", "properties": {"name": "Issakitchi", "place": "village", "osm_layer": "settlements"}, "geometry": {"type": "Point", "coordinates": [4.3435557, 14.0091847]}}, {"type": "Feature", "properties": {"name": "Badaguichiri", "place": "town", "osm_layer": "settlements"}, "geometry": {"type": "Point", "coordinates": [5.3698449, 14.5203577]}}, {"type": "Feature", "properties": {"name": "Dar\u00e9 Salam", "place": "town", "osm_layer": "settlements"}, "geometry": {"type": "Point", "coordinates": [5.4917664, 14.5605931]}}, {"type": "Feature", "properties": {"name": "Tounga Saddi", "place": "village", "osm_layer": "settlements"}, "geometry": {"type": "Point", "coordinates": [5.4257508, 14.5504692]}}, {"type": "Feature", "properties": {"name": "Kart\u00e9la", "place": "hamlet", "osm_layer": "settlements"}, "geometry": {"type": "Point", "coordinates": [5.4681696, 14.5711027]}}, {"type": "Feature", "properties": {"name": "Nakoni", "place": "town", "osm_layer": "settlements"}, "geometry": {"type": "Point", "coordinates": [5.9134888, 14.1098383]}}, {"type": "Feature", "properties": {"name": "Tchito", "place": "town", "osm_layer": "settlements"}, "geometry": {"type": "Point", "coordinates": [4.1929255, 13.8064683]}}, {"type": "Feature", "properties": {"name": "Mabrousbo", "place": "hamlet", "osm_layer": "settlements"}, "geometry": {"type": "Point", "coordinates": [13.6150648, 21.1596173]}}, {"type": "Feature", "properties": {"name": "Dao Timmi", "place": "town", "osm_layer": "settlements"}, "geometry": {"type": "Point", "coordinates": [13.5395031, 20.5597389]}}, {"type": "Feature", "properties": {"name": "Kourizo", "place": "hamlet", "osm_layer": "settlements"}, "geometry": {"type": "Point", "coordinates": [12.9986106, 20.3897512]}}, {"type": "Feature", "properties": {"name": "Orida", "place": "hamlet", "osm_layer": "settlements"}, "geometry": {"type": "Point", "coordinates": [12.2087522, 21.1775185]}}, {"type": "Feature", "properties": {"name": "Djado", "place": "village", "osm_layer": "settlements"}, "geometry": {"type": "Point", "coordinates": [12.3083635, 21.0158745]}}, {"type": "Feature", "properties": {"name": "Garin Balli", "place": "hamlet", "osm_layer": "settlements"}, "geometry": {"type": "Point", "coordinates": [4.3375083, 14.066801]}}, {"type": "Feature", "properties": {"name": "T\u00e9nidiri", "place": "hamlet", "osm_layer": "settlements"}, "geometry": {"type": "Point", "coordinates": [4.4766577, 14.1335271]}}, {"type": "Feature", "properties": {"name": "Kaiwa Fako", "place": "village", "osm_layer": "settlements"}, "geometry": {"type": "Point", "coordinates": [4.3592047, 14.0181739]}}, {"type": "Feature", "properties": {"name": "Balissa", "place": "town", "osm_layer": "settlements"}, "geometry": {"type": "Point", "coordinates": [4.320155, 14.0380746]}}, {"type": "Feature", "properties": {"name": "Walwala", "place": "village", "osm_layer": "settlements"}, "geometry": {"type": "Point", "coordinates": [4.2323311, 13.9673086]}}, {"type": "Feature", "properties": {"name": "Madatta 3", "place": "village", "osm_layer": "settlements"}, "geometry": {"type": "Point", "coordinates": [4.0696658, 13.9008229]}}, {"type": "Feature", "properties": {"name": "Haoussawa", "place": "village", "osm_layer": "settlements"}, "geometry": {"type": "Point", "coordinates": [4.0589932, 13.9382211]}}, {"type": "Feature", "properties": {"name": "Wassangou", "place": "village", "osm_layer": "settlements"}, "geometry": {"type": "Point", "coordinates": [3.8023987, 12.9091524]}}, {"type": "Feature", "properties": {"name": "N'Gonga Zarma", "place": "village", "osm_layer": "settlements"}, "geometry": {"type": "Point", "coordinates": [2.8276176, 13.1794434]}}, {"type": "Feature", "properties": {"name": "S\u00e8r\u00e8", "place": "hamlet", "osm_layer": "settlements"}, "geometry": {"type": "Point", "coordinates": [0.4214966, 14.7306523]}}, {"type": "Feature", "properties": {"name": "Bossey", "place": "hamlet", "osm_layer": "settlements"}, "geometry": {"type": "Point", "coordinates": [0.8191957, 14.4950964]}}, {"type": "Feature", "properties": {"name": "Namarigoungou", "place": "village", "osm_layer": "settlements"}, "geometry": {"type": "Point", "coordinates": [1.259996, 14.3514387]}}, {"type": "Feature", "properties": {"name": "Koma", "place": "village", "osm_layer": "settlements"}, "geometry": {"type": "Point", "coordinates": [1.3893201, 14.2289498]}}, {"type": "Feature", "properties": {"name": "Kar\u00e9 Bangou", "place": "village", "osm_layer": "settlements"}, "geometry": {"type": "Point", "coordinates": [1.8146282, 14.0213102]}}, {"type": "Feature", "properties": {"name": "Dar\u00e9 Bangou", "place": "village", "osm_layer": "settlements"}, "geometry": {"type": "Point", "coordinates": [1.7562502, 14.0224611]}}, {"type": "Feature", "properties": {"name": "Komo Bangou", "place": "village", "osm_layer": "settlements"}, "geometry": {"type": "Point", "coordinates": [1.7847935, 13.9520929]}}, {"type": "Feature", "properties": {"name": "Danki", "place": "village", "osm_layer": "settlements"}, "geometry": {"type": "Point", "coordinates": [2.0168448, 13.6921284]}}, {"type": "Feature", "properties": {"name": "Wari", "place": "village", "osm_layer": "settlements"}, "geometry": {"type": "Point", "coordinates": [2.240062, 13.6161784]}}, {"type": "Feature", "properties": {"name": "Kollo", "place": "city", "osm_layer": "settlements"}, "geometry": {"type": "Point", "coordinates": [2.316525, 13.3420771]}}, {"type": "Feature", "properties": {"name": "Fandoga", "place": "village", "osm_layer": "settlements"}, "geometry": {"type": "Point", "coordinates": [2.5101336, 13.2714099]}}, {"type": "Feature", "properties": {"name": "Kour\u00e9", "place": "village", "osm_layer": "settlements"}, "geometry": {"type": "Point", "coordinates": [2.57563, 13.310915]}}, {"type": "Feature", "properties": {"name": "Baboussay", "place": "town", "osm_layer": "settlements"}, "geometry": {"type": "Point", "coordinates": [2.6252545, 13.3945837]}}, {"type": "Feature", "properties": {"name": "Tollo", "place": "village", "osm_layer": "settlements"}, "geometry": {"type": "Point", "coordinates": [2.7234663, 13.3331953]}}, {"type": "Feature", "properties": {"name": "Zangarata", "place": "town", "osm_layer": "settlements"}, "geometry": {"type": "Point", "coordinates": [5.6603086, 14.7960706]}}, {"type": "Feature", "properties": {"name": "Abalak", "place": "city", "osm_layer": "settlements"}, "geometry": {"type": "Point", "coordinates": [6.281312, 15.463729]}}, {"type": "Feature", "properties": {"name": "Tiour\u00e9 Fandou", "place": "village", "osm_layer": "settlements"}, "geometry": {"type": "Point", "coordinates": [2.1817229, 13.4625228]}}, {"type": "Feature", "properties": {"name": "Matam\u00e8ye", "place": "city", "osm_layer": "settlements"}, "geometry": {"type": "Point", "coordinates": [8.47855, 13.422144]}}, {"type": "Feature", "properties": {"name": "Tanout", "place": "city", "osm_layer": "settlements"}, "geometry": {"type": "Point", "coordinates": [8.878363, 14.97119]}}, {"type": "Feature", "properties": {"name": "Gour\u00e9", "place": "city", "osm_layer": "settlements"}, "geometry": {"type": "Point", "coordinates": [10.2642868, 13.9861879]}}, {"type": "Feature", "properties": {"name": "Agui\u00e9", "place": "city", "osm_layer": "settlements"}, "geometry": {"type": "Point", "coordinates": [7.7769974, 13.5038341]}}, {"type": "Feature", "properties": {"name": "Guidan Roumdji", "place": "city", "osm_layer": "settlements"}, "geometry": {"type": "Point", "coordinates": [6.696541, 13.66107]}}, {"type": "Feature", "properties": {"name": "Filingu\u00e9", "place": "city", "osm_layer": "settlements"}, "geometry": {"type": "Point", "coordinates": [3.324134, 14.351996]}}, {"type": "Feature", "properties": {"name": "Ma\u00efn\u00e9-Soroa", "place": "city", "osm_layer": "settlements"}, "geometry": {"type": "Point", "coordinates": [12.0280819, 13.2151567]}}, {"type": "Feature", "properties": {"name": "Tchiroz\u00e9rine", "place": "town", "osm_layer": "settlements"}, "geometry": {"type": "Point", "coordinates": [7.832831, 17.266115]}}, {"type": "Feature", "properties": {"name": "Madarounfa", "place": "city", "osm_layer": "settlements"}, "geometry": {"type": "Point", "coordinates": [7.1616587, 13.3031734]}}, {"type": "Feature", "properties": {"name": "Gazaoua", "place": "town", "osm_layer": "settlements"}, "geometry": {"type": "Point", "coordinates": [7.9125927, 13.5271777]}}, {"type": "Feature", "properties": {"name": "Ke\u00efta", "place": "city", "osm_layer": "settlements"}, "geometry": {"type": "Point", "coordinates": [5.775007, 14.75637]}}, {"type": "Feature", "properties": {"name": "Tchin-Tabaraden", "place": "city", "osm_layer": "settlements"}, "geometry": {"type": "Point", "coordinates": [5.8036112, 15.8982622]}}, {"type": "Feature", "properties": {"name": "Bouza", "place": "city", "osm_layer": "settlements"}, "geometry": {"type": "Point", "coordinates": [6.043656, 14.423489]}}, {"type": "Feature", "properties": {"name": "Loga", "place": "city", "osm_layer": "settlements"}, "geometry": {"type": "Point", "coordinates": [3.231257, 13.6150486]}}, {"type": "Feature", "properties": {"name": "Barkiawal B\u00e9ri", "place": "village", "osm_layer": "settlements"}, "geometry": {"type": "Point", "coordinates": [2.3088996, 13.5433464]}}, {"type": "Feature", "properties": {"name": "Gouchi", "place": "town", "osm_layer": "settlements"}, "geometry": {"type": "Point", "coordinates": [9.552913, 13.510051]}}, {"type": "Feature", "properties": {"name": "Baochi", "place": "town", "osm_layer": "settlements"}, "geometry": {"type": "Point", "coordinates": [9.6008974, 13.4965041]}}, {"type": "Feature", "properties": {"name": "Guidiguir", "place": "town", "osm_layer": "settlements"}, "geometry": {"type": "Point", "coordinates": [9.830846, 13.6720361]}}, {"type": "Feature", "properties": {"name": "Gamdou", "place": "town", "osm_layer": "settlements"}, "geometry": {"type": "Point", "coordinates": [9.9880802, 13.3592964]}}, {"type": "Feature", "properties": {"name": "Doumbari", "place": "village", "osm_layer": "settlements"}, "geometry": {"type": "Point", "coordinates": [9.7800477, 13.1198895]}}, {"type": "Feature", "properties": {"name": "Nogo", "place": "town", "osm_layer": "settlements"}, "geometry": {"type": "Point", "coordinates": [9.5737398, 13.1521555]}}, {"type": "Feature", "properties": {"name": "Gazabal\u00e9", "place": "town", "osm_layer": "settlements"}, "geometry": {"type": "Point", "coordinates": [10.088038, 13.5989696]}}, {"type": "Feature", "properties": {"name": "Karg\u00e9ri", "place": "town", "osm_layer": "settlements"}, "geometry": {"type": "Point", "coordinates": [10.4257011, 13.4420111]}}, {"type": "Feature", "properties": {"name": "Boubout\u00e9", "place": "town", "osm_layer": "settlements"}, "geometry": {"type": "Point", "coordinates": [9.8195995, 14.129583]}}, {"type": "Feature", "properties": {"name": "Kell\u00e9", "place": "town", "osm_layer": "settlements"}, "geometry": {"type": "Point", "coordinates": [10.115655, 14.281896]}}, {"type": "Feature", "properties": {"name": "Goulouski", "place": "village", "osm_layer": "settlements"}, "geometry": {"type": "Point", "coordinates": [9.1950288, 15.0101087]}}, {"type": "Feature", "properties": {"name": "Gourbobo", "place": "village", "osm_layer": "settlements"}, "geometry": {"type": "Point", "coordinates": [9.598613, 14.9587206]}}, {"type": "Feature", "properties": {"name": "Ganmaram", "place": "village", "osm_layer": "settlements"}, "geometry": {"type": "Point", "coordinates": [8.9665418, 15.0428351]}}, {"type": "Feature", "properties": {"name": "Tabankoro", "place": "village", "osm_layer": "settlements"}, "geometry": {"type": "Point", "coordinates": [8.7306991, 15.0813582]}}, {"type": "Feature", "properties": {"name": "Ekelfi", "place": "village", "osm_layer": "settlements"}, "geometry": {"type": "Point", "coordinates": [7.4102615, 16.0912489]}}, {"type": "Feature", "properties": {"name": "Toumbelaga", "place": "village", "osm_layer": "settlements"}, "geometry": {"type": "Point", "coordinates": [7.839242, 15.8091707]}}, {"type": "Feature", "properties": {"name": "Aderbissinat", "place": "village", "osm_layer": "settlements"}, "geometry": {"type": "Point", "coordinates": [7.8956817, 15.6182482]}}, {"type": "Feature", "properties": {"name": "Danga Iadima", "place": "village", "osm_layer": "settlements"}, "geometry": {"type": "Point", "coordinates": [7.842435, 15.9711839]}}, {"type": "Feature", "properties": {"name": "Koukakam\u00e9", "place": "town", "osm_layer": "settlements"}, "geometry": {"type": "Point", "coordinates": [4.3670871, 14.7495169]}}, {"type": "Feature", "properties": {"name": "Dan Tchiro", "place": "village", "osm_layer": "settlements"}, "geometry": {"type": "Point", "coordinates": [7.7310061, 13.6081727]}}, {"type": "Feature", "properties": {"name": "Kafin Abarchi", "place": "village", "osm_layer": "settlements"}, "geometry": {"type": "Point", "coordinates": [7.6901234, 13.6049897]}}, {"type": "Feature", "properties": {"name": "Dan Gantamawa", "place": "village", "osm_layer": "settlements"}, "geometry": {"type": "Point", "coordinates": [7.6723501, 13.6317701]}}, {"type": "Feature", "properties": {"name": "Tabkin Kania", "place": "village", "osm_layer": "settlements"}, "geometry": {"type": "Point", "coordinates": [7.6789492, 13.6159915]}}, {"type": "Feature", "properties": {"name": "May Gaoud' \u00e9", "place": "village", "osm_layer": "settlements"}, "geometry": {"type": "Point", "coordinates": [7.6519687, 13.6137609]}}, {"type": "Feature", "properties": {"name": "Mouri Mak' aoura", "place": "village", "osm_layer": "settlements"}, "geometry": {"type": "Point", "coordinates": [7.6209111, 13.6264283]}}, {"type": "Feature", "properties": {"name": "Maygochi", "place": "village", "osm_layer": "settlements"}, "geometry": {"type": "Point", "coordinates": [7.6381076, 13.6380954]}}, {"type": "Feature", "properties": {"name": "Dadani", "place": "village", "osm_layer": "settlements"}, "geometry": {"type": "Point", "coordinates": [7.6882642, 13.6516582]}}, {"type": "Feature", "properties": {"name": "Gob\u00e9rawa", "place": "village", "osm_layer": "settlements"}, "geometry": {"type": "Point", "coordinates": [7.6327854, 13.6582087]}}, {"type": "Feature", "properties": {"name": "May Sameykou", "place": "village", "osm_layer": "settlements"}, "geometry": {"type": "Point", "coordinates": [7.6050797, 13.6401944]}}, {"type": "Feature", "properties": {"name": "Guidan Madougou", "place": "village", "osm_layer": "settlements"}, "geometry": {"type": "Point", "coordinates": [7.6042034, 13.6751736]}}, {"type": "Feature", "properties": {"name": "Dan Saga", "place": "village", "osm_layer": "settlements"}, "geometry": {"type": "Point", "coordinates": [7.7353685, 13.6953207]}}, {"type": "Feature", "properties": {"name": "Angoual M\u00e2lam", "place": "village", "osm_layer": "settlements"}, "geometry": {"type": "Point", "coordinates": [7.7696669, 13.555657]}}, {"type": "Feature", "properties": {"name": "Dan Gao", "place": "village", "osm_layer": "settlements"}, "geometry": {"type": "Point", "coordinates": [7.7712434, 13.5458247]}}, {"type": "Feature", "properties": {"name": "Dan Gouari", "place": "village", "osm_layer": "settlements"}, "geometry": {"type": "Point", "coordinates": [7.7337722, 13.577004]}}, {"type": "Feature", "properties": {"name": "Baban Arn\u00e9", "place": "village", "osm_layer": "settlements"}, "geometry": {"type": "Point", "coordinates": [7.7153934, 13.5605641]}}, {"type": "Feature", "properties": {"name": "Tafouka", "place": "village", "osm_layer": "settlements"}, "geometry": {"type": "Point", "coordinates": [7.6799733, 13.5322949]}}, {"type": "Feature", "properties": {"name": "Issourou", "place": "village", "osm_layer": "settlements"}, "geometry": {"type": "Point", "coordinates": [7.6918807, 13.5349793]}}, {"type": "Feature", "properties": {"name": "Aladou", "place": "village", "osm_layer": "settlements"}, "geometry": {"type": "Point", "coordinates": [7.7097849, 13.5349793]}}, {"type": "Feature", "properties": {"name": "D\u00e9bi", "place": "village", "osm_layer": "settlements"}, "geometry": {"type": "Point", "coordinates": [7.6023149, 13.5446236]}}, {"type": "Feature", "properties": {"name": "Dan Toumbi", "place": "village", "osm_layer": "settlements"}, "geometry": {"type": "Point", "coordinates": [7.5795662, 13.5553108]}}, {"type": "Feature", "properties": {"name": "Dan Kada", "place": "village", "osm_layer": "settlements"}, "geometry": {"type": "Point", "coordinates": [7.6597007, 13.5138984]}}, {"type": "Feature", "properties": {"name": "Chadawanka", "place": "village", "osm_layer": "settlements"}, "geometry": {"type": "Point", "coordinates": [7.6135236, 13.4820268]}}, {"type": "Feature", "properties": {"name": "Taka Lafia", "place": "village", "osm_layer": "settlements"}, "geometry": {"type": "Point", "coordinates": [7.6282038, 13.4507423]}}, {"type": "Feature", "properties": {"name": "Y\u00e9ni", "place": "town", "osm_layer": "settlements"}, "geometry": {"type": "Point", "coordinates": [2.9939356, 13.428836]}}, {"type": "Feature", "properties": {"name": "Kotaki", "place": "village", "osm_layer": "settlements"}, "geometry": {"type": "Point", "coordinates": [2.8780844, 12.4493193]}}, {"type": "Feature", "properties": {"name": "Saboula", "place": "village", "osm_layer": "settlements"}, "geometry": {"type": "Point", "coordinates": [2.8977528, 12.5281745]}}, {"type": "Feature", "properties": {"name": "Falmey", "place": "town", "osm_layer": "settlements"}, "geometry": {"type": "Point", "coordinates": [2.852715, 12.594472]}}, {"type": "Feature", "properties": {"name": "Ganigoungou", "place": "village", "osm_layer": "settlements"}, "geometry": {"type": "Point", "coordinates": [2.8582077, 12.6190501]}}, {"type": "Feature", "properties": {"name": "Sand\u00e9 Seydou", "place": "village", "osm_layer": "settlements"}, "geometry": {"type": "Point", "coordinates": [2.8660963, 13.2434607]}}, {"type": "Feature", "properties": {"name": "Sand\u00e9 Moussa", "place": "village", "osm_layer": "settlements"}, "geometry": {"type": "Point", "coordinates": [2.8659572, 13.24831]}}, {"type": "Feature", "properties": {"name": "Djassarey", "place": "village", "osm_layer": "settlements"}, "geometry": {"type": "Point", "coordinates": [2.8789667, 13.2657457]}}, {"type": "Feature", "properties": {"name": "Alfabir\u00e9", "place": "village", "osm_layer": "settlements"}, "geometry": {"type": "Point", "coordinates": [2.8719734, 13.2701897]}}, {"type": "Feature", "properties": {"name": "Fandou Djibo", "place": "village", "osm_layer": "settlements"}, "geometry": {"type": "Point", "coordinates": [2.8688343, 13.2853633]}}, {"type": "Feature", "properties": {"name": "Tombo Djibo Baba", "place": "village", "osm_layer": "settlements"}, "geometry": {"type": "Point", "coordinates": [2.8770847, 13.3257907]}}, {"type": "Feature", "properties": {"name": "Foulanzam", "place": "village", "osm_layer": "settlements"}, "geometry": {"type": "Point", "coordinates": [2.8808992, 13.3275622]}}, {"type": "Feature", "properties": {"name": "Oud\u00e9 el Hadji", "place": "village", "osm_layer": "settlements"}, "geometry": {"type": "Point", "coordinates": [2.9284074, 13.3261]}}, {"type": "Feature", "properties": {"name": "Bangoubi", "place": "village", "osm_layer": "settlements"}, "geometry": {"type": "Point", "coordinates": [2.9318751, 13.327506]}}, {"type": "Feature", "properties": {"name": "Dibella", "place": "hamlet", "osm_layer": "settlements"}, "geometry": {"type": "Point", "coordinates": [13.1035191, 17.5299777]}}, {"type": "Feature", "properties": {"name": "Ach\u00e9nouma", "place": "town", "osm_layer": "settlements"}, "geometry": {"type": "Point", "coordinates": [12.9223174, 19.1275345]}}, {"type": "Feature", "properties": {"name": "Aney", "place": "town", "osm_layer": "settlements"}, "geometry": {"type": "Point", "coordinates": [12.8998172, 19.3679927]}}, {"type": "Feature", "properties": {"name": "Tamazlaqu", "place": "village", "osm_layer": "settlements"}, "geometry": {"type": "Point", "coordinates": [8.102364, 17.7094069]}}, {"type": "Feature", "properties": {"name": "Akr\u00e9r\u00e8b", "place": "village", "osm_layer": "settlements"}, "geometry": {"type": "Point", "coordinates": [8.9399839, 17.5987542]}}, {"type": "Feature", "properties": {"name": "\u00c2guelal", "place": "village", "osm_layer": "settlements"}, "geometry": {"type": "Point", "coordinates": [7.2776203, 18.7165295]}}, {"type": "Feature", "properties": {"name": "Gougaram", "place": "village", "osm_layer": "settlements"}, "geometry": {"type": "Point", "coordinates": [7.802786, 18.454624]}}, {"type": "Feature", "properties": {"name": "Sidawat", "place": "hamlet", "osm_layer": "settlements"}, "geometry": {"type": "Point", "coordinates": [8.0830989, 18.5135824]}}, {"type": "Feature", "properties": {"name": "Akokan", "place": "town", "osm_layer": "settlements"}, "geometry": {"type": "Point", "coordinates": [7.338211, 18.710635]}}, {"type": "Feature", "properties": {"name": "T\u00eemia", "place": "village", "osm_layer": "settlements"}, "geometry": {"type": "Point", "coordinates": [8.7791706, 18.114317]}}, {"type": "Feature", "properties": {"name": "Teguiddan Tessoum", "place": "village", "osm_layer": "settlements"}, "geometry": {"type": "Point", "coordinates": [6.646278, 17.4289829]}}, {"type": "Feature", "properties": {"name": "Tassara", "place": "town", "osm_layer": "settlements"}, "geometry": {"type": "Point", "coordinates": [5.6481871, 16.8089516]}}, {"type": "Feature", "properties": {"name": "Tillia", "place": "town", "osm_layer": "settlements"}, "geometry": {"type": "Point", "coordinates": [4.792211, 16.137927]}}, {"type": "Feature", "properties": {"name": "T\u00e9lems\u00e8s", "place": "village", "osm_layer": "settlements"}, "geometry": {"type": "Point", "coordinates": [4.7799149, 15.6229353]}}, {"type": "Feature", "properties": {"name": "And\u00e9ramboukane", "place": "town", "osm_layer": "settlements"}, "geometry": {"type": "Point", "coordinates": [3.0224703, 15.4220566]}}, {"type": "Feature", "properties": {"name": "Kokorou", "place": "village", "osm_layer": "settlements"}, "geometry": {"type": "Point", "coordinates": [0.9295561, 14.2063212]}}, {"type": "Feature", "properties": {"name": "Dargol", "place": "town", "osm_layer": "settlements"}, "geometry": {"type": "Point", "coordinates": [1.2423646, 13.9172612]}}, {"type": "Feature", "properties": {"name": "Sansan\u00e9 Haoussa", "place": "town", "osm_layer": "settlements"}, "geometry": {"type": "Point", "coordinates": [1.6079665, 13.8458039]}}, {"type": "Feature", "properties": {"name": "Goth\u00e8ye", "place": "city", "osm_layer": "settlements"}, "geometry": {"type": "Point", "coordinates": [1.5665107, 13.8571396]}}, {"type": "Feature", "properties": {"name": "Karma", "place": "town", "osm_layer": "settlements"}, "geometry": {"type": "Point", "coordinates": [1.8120279, 13.6718514]}}, {"type": "Feature", "properties": {"name": "Bossey Bangou", "place": "village", "osm_layer": "settlements"}, "geometry": {"type": "Point", "coordinates": [1.2917839, 13.3460591]}}, {"type": "Feature", "properties": {"name": "Kirtachi Z\u00e9no", "place": "village", "osm_layer": "settlements"}, "geometry": {"type": "Point", "coordinates": [2.4392941, 12.8350582]}}, {"type": "Feature", "properties": {"name": "Koulou", "place": "town", "osm_layer": "settlements"}, "geometry": {"type": "Point", "coordinates": [3.0654041, 12.2204004]}}, {"type": "Feature", "properties": {"name": "Dioundiou", "place": "town", "osm_layer": "settlements"}, "geometry": {"type": "Point", "coordinates": [3.544343, 12.619361]}}, {"type": "Feature", "properties": {"name": "Bangario Zou", "place": "town", "osm_layer": "settlements"}, "geometry": {"type": "Point", "coordinates": [2.9717655, 13.3552169]}}, {"type": "Feature", "properties": {"name": "Birnin Gui\u00e9za", "place": "village", "osm_layer": "settlements"}, "geometry": {"type": "Point", "coordinates": [8.0336475, 13.4391668]}}, {"type": "Feature", "properties": {"name": "Tiloa", "place": "village", "osm_layer": "settlements"}, "geometry": {"type": "Point", "coordinates": [2.2194991, 13.3457409]}}, {"type": "Feature", "properties": {"name": "Taroum", "place": "village", "osm_layer": "settlements"}, "geometry": {"type": "Point", "coordinates": [2.2729498, 14.6744184]}}, {"type": "Feature", "properties": {"name": "Zama", "place": "town", "osm_layer": "settlements"}, "geometry": {"type": "Point", "coordinates": [2.8260611, 14.3278854]}}, {"type": "Feature", "properties": {"name": "Ba\u00efzo", "place": "village", "osm_layer": "settlements"}, "geometry": {"type": "Point", "coordinates": [4.7539028, 13.8713053]}}, {"type": "Feature", "properties": {"name": "Matankari", "place": "town", "osm_layer": "settlements"}, "geometry": {"type": "Point", "coordinates": [8.5910893, 13.1249974]}}, {"type": "Feature", "properties": {"name": "Kohinza", "place": "village", "osm_layer": "settlements"}, "geometry": {"type": "Point", "coordinates": [2.9148772, 13.1790827]}}, {"type": "Feature", "properties": {"name": "Dabaga", "place": "village", "osm_layer": "settlements"}, "geometry": {"type": "Point", "coordinates": [2.9355596, 13.1789963]}}, {"type": "Feature", "properties": {"name": "Kalla Path\u00e9", "place": "village", "osm_layer": "settlements"}, "geometry": {"type": "Point", "coordinates": [2.9396393, 13.2039319]}}, {"type": "Feature", "properties": {"name": "Belb\u00e9dji", "place": "city", "osm_layer": "settlements"}, "geometry": {"type": "Point", "coordinates": [7.9947795, 14.6815083]}}, {"type": "Feature", "properties": {"name": "Gabou Goura", "place": "village", "osm_layer": "settlements"}, "geometry": {"type": "Point", "coordinates": [2.022133, 13.5527162]}}, {"type": "Feature", "properties": {"name": "Tondibia Peul", "place": "village", "osm_layer": "settlements"}, "geometry": {"type": "Point", "coordinates": [2.0281956, 13.6048893]}}, {"type": "Feature", "properties": {"name": "Bossey Bangou", "place": "village", "osm_layer": "settlements"}, "geometry": {"type": "Point", "coordinates": [2.1339559, 13.6014096]}}, {"type": "Feature", "properties": {"name": "Sakabale", "place": "village", "osm_layer": "settlements"}, "geometry": {"type": "Point", "coordinates": [6.9904987, 14.7043467]}}, {"type": "Feature", "properties": {"name": "Bad\u00e9r", "place": "village", "osm_layer": "settlements"}, "geometry": {"type": "Point", "coordinates": [6.9715945, 14.6650541]}}, {"type": "Feature", "properties": {"name": "Kotar\u00e9", "place": "village", "osm_layer": "settlements"}, "geometry": {"type": "Point", "coordinates": [7.6399233, 13.8918809]}}, {"type": "Feature", "properties": {"name": "Taki\u00e9ta", "place": "city", "osm_layer": "settlements"}, "geometry": {"type": "Point", "coordinates": [8.5307127, 13.6810641]}}, {"type": "Feature", "properties": {"name": "Bakin Birji I", "place": "village", "osm_layer": "settlements"}, "geometry": {"type": "Point", "coordinates": [8.8203317, 14.2898985]}}, {"type": "Feature", "properties": {"name": "Malawa", "place": "town", "osm_layer": "settlements"}, "geometry": {"type": "Point", "coordinates": [9.6130274, 13.033121]}}, {"type": "Feature", "properties": {"name": "Wacha", "place": "town", "osm_layer": "settlements"}, "geometry": {"type": "Point", "coordinates": [9.295774, 13.365284]}}, {"type": "Feature", "properties": {"name": "Dan Tchiao", "place": "village", "osm_layer": "settlements"}, "geometry": {"type": "Point", "coordinates": [9.0923238, 12.8787867]}}, {"type": "Feature", "properties": {"name": "Bedouaram", "place": "hamlet", "osm_layer": "settlements"}, "geometry": {"type": "Point", "coordinates": [13.1514306, 15.7438353]}}, {"type": "Feature", "properties": {"name": "Kouf\u00e8y", "place": "village", "osm_layer": "settlements"}, "geometry": {"type": "Point", "coordinates": [2.4420121, 14.522896]}}, {"type": "Feature", "properties": {"name": "Kabl\u00e9wa", "place": "town", "osm_layer": "settlements"}, "geometry": {"type": "Point", "coordinates": [12.9785488, 13.9768069]}}, {"type": "Feature", "properties": {"name": "Termit-Kaoboul", "place": "hamlet", "osm_layer": "settlements"}, "geometry": {"type": "Point", "coordinates": [11.5173806, 15.6355115]}}, {"type": "Feature", "properties": {"name": "Ch\u00e9timari", "place": "village", "osm_layer": "settlements"}, "geometry": {"type": "Point", "coordinates": [12.4204073, 13.185496]}}, {"type": "Feature", "properties": {"name": "Bonkoukou", "place": "village", "osm_layer": "settlements"}, "geometry": {"type": "Point", "coordinates": [3.2122569, 14.0113386]}}, {"type": "Feature", "properties": {"name": "Balleyara", "place": "city", "osm_layer": "settlements"}, "geometry": {"type": "Point", "coordinates": [2.9515071, 13.7841021]}}, {"type": "Feature", "properties": {"name": "Soli", "place": "town", "osm_layer": "settlements"}, "geometry": {"type": "Point", "coordinates": [7.5195016, 14.7165087]}}, {"type": "Feature", "properties": {"name": "Boukanda", "place": "village", "osm_layer": "settlements"}, "geometry": {"type": "Point", "coordinates": [2.0484338, 13.9136491]}}, {"type": "Feature", "properties": {"name": "La Tapoa", "place": "village", "osm_layer": "settlements"}, "geometry": {"type": "Point", "coordinates": [2.4247709, 12.474927]}}, {"type": "Feature", "properties": {"name": "Goubey", "place": "town", "osm_layer": "settlements"}, "geometry": {"type": "Point", "coordinates": [4.1916062, 13.6988477]}}, {"type": "Feature", "properties": {"name": "Manseyka", "place": "village", "osm_layer": "settlements"}, "geometry": {"type": "Point", "coordinates": [4.6510464, 13.8206679]}}, {"type": "Feature", "properties": {"name": "Bazaga", "place": "town", "osm_layer": "settlements"}, "geometry": {"type": "Point", "coordinates": [5.086723, 13.796163]}}, {"type": "Feature", "properties": {"name": "Guidan Ider", "place": "town", "osm_layer": "settlements"}, "geometry": {"type": "Point", "coordinates": [5.3191525, 14.0131167]}}, {"type": "Feature", "properties": {"name": "Konjanjam", "place": "village", "osm_layer": "settlements"}, "geometry": {"type": "Point", "coordinates": [8.8095687, 14.0379524]}}, {"type": "Feature", "properties": {"name": "Bilma Garin Dawa", "place": "village", "osm_layer": "settlements"}, "geometry": {"type": "Point", "coordinates": [8.7257102, 13.888398]}}, {"type": "Feature", "properties": {"name": "Baban Baki", "place": "hamlet", "osm_layer": "settlements"}, "geometry": {"type": "Point", "coordinates": [8.6592811, 14.1198923]}}, {"type": "Feature", "properties": {"name": "Halbawa", "place": "village", "osm_layer": "settlements"}, "geometry": {"type": "Point", "coordinates": [8.4920684, 14.1392607]}}, {"type": "Feature", "properties": {"name": "Dan Sara", "place": "village", "osm_layer": "settlements"}, "geometry": {"type": "Point", "coordinates": [8.4871896, 14.1790602]}}, {"type": "Feature", "properties": {"name": "Sansana Wada", "place": "village", "osm_layer": "settlements"}, "geometry": {"type": "Point", "coordinates": [8.2451722, 14.0910175]}}, {"type": "Feature", "properties": {"name": "Ourofon", "place": "village", "osm_layer": "settlements"}, "geometry": {"type": "Point", "coordinates": [8.131122, 14.0728947]}}, {"type": "Feature", "properties": {"name": "Mijinyawa", "place": "village", "osm_layer": "settlements"}, "geometry": {"type": "Point", "coordinates": [8.237404, 14.1371087]}}, {"type": "Feature", "properties": {"name": "Gagar\u00e9", "place": "village", "osm_layer": "settlements"}, "geometry": {"type": "Point", "coordinates": [8.2561822, 14.1815318]}}, {"type": "Feature", "properties": {"name": "Guidan Atchy\u00e9", "place": "village", "osm_layer": "settlements"}, "geometry": {"type": "Point", "coordinates": [8.2905544, 14.0340041]}}, {"type": "Feature", "properties": {"name": "Guidan Ilyas", "place": "village", "osm_layer": "settlements"}, "geometry": {"type": "Point", "coordinates": [8.32084, 14.0243989]}}, {"type": "Feature", "properties": {"name": "K\u00e9l\u00e9w\u00e9y", "place": "village", "osm_layer": "settlements"}, "geometry": {"type": "Point", "coordinates": [8.1950531, 14.0750461]}}, {"type": "Feature", "properties": {"name": "Magaria", "place": "town", "osm_layer": "settlements"}, "geometry": {"type": "Point", "coordinates": [8.2373971, 13.9919432]}}, {"type": "Feature", "properties": {"name": "Awach\u00e9", "place": "town", "osm_layer": "settlements"}, "geometry": {"type": "Point", "coordinates": [8.229543, 13.9544552]}}, {"type": "Feature", "properties": {"name": "Goroubley", "place": "village", "osm_layer": "settlements"}, "geometry": {"type": "Point", "coordinates": [8.184549, 13.9881755]}}, {"type": "Feature", "properties": {"name": "May Guizawa", "place": "village", "osm_layer": "settlements"}, "geometry": {"type": "Point", "coordinates": [8.1462228, 13.9863612]}}, {"type": "Feature", "properties": {"name": "Dakora", "place": "village", "osm_layer": "settlements"}, "geometry": {"type": "Point", "coordinates": [8.2887719, 14.0013384]}}, {"type": "Feature", "properties": {"name": "Sala", "place": "village", "osm_layer": "settlements"}, "geometry": {"type": "Point", "coordinates": [8.3340096, 13.9609107]}}, {"type": "Feature", "properties": {"name": "Zaroumey", "place": "village", "osm_layer": "settlements"}, "geometry": {"type": "Point", "coordinates": [8.028209, 13.9198375]}}, {"type": "Feature", "properties": {"name": "May Kogo", "place": "village", "osm_layer": "settlements"}, "geometry": {"type": "Point", "coordinates": [8.315585, 13.7869697]}}, {"type": "Feature", "properties": {"name": "Daratou", "place": "village", "osm_layer": "settlements"}, "geometry": {"type": "Point", "coordinates": [7.9450265, 13.9558309]}}, {"type": "Feature", "properties": {"name": "Kantch\u00e9", "place": "town", "osm_layer": "settlements"}, "geometry": {"type": "Point", "coordinates": [8.462786, 13.539498]}}, {"type": "Feature", "properties": {"name": "Kantch\u00e9", "place": "village", "osm_layer": "settlements"}, "geometry": {"type": "Point", "coordinates": [8.2528772, 13.4522492]}}, {"type": "Feature", "properties": {"name": "Koona", "place": "village", "osm_layer": "settlements"}, "geometry": {"type": "Point", "coordinates": [8.0582828, 13.5450206]}}, {"type": "Feature", "properties": {"name": "Zermou", "place": "village", "osm_layer": "settlements"}, "geometry": {"type": "Point", "coordinates": [9.3182075, 13.8695769]}}, {"type": "Feature", "properties": {"name": "Guidimouni", "place": "town", "osm_layer": "settlements"}, "geometry": {"type": "Point", "coordinates": [9.5128925, 13.6947395]}}, {"type": "Feature", "properties": {"name": "Maya", "place": "village", "osm_layer": "settlements"}, "geometry": {"type": "Point", "coordinates": [9.6553229, 14.0277489]}}, {"type": "Feature", "properties": {"name": "Damagaram Takaya", "place": "city", "osm_layer": "settlements"}, "geometry": {"type": "Point", "coordinates": [9.482686, 14.1383821]}}, {"type": "Feature", "properties": {"name": "Ganatcha", "place": "village", "osm_layer": "settlements"}, "geometry": {"type": "Point", "coordinates": [9.724338, 14.307088]}}, {"type": "Feature", "properties": {"name": "Gu\u00e9lam", "place": "village", "osm_layer": "settlements"}, "geometry": {"type": "Point", "coordinates": [9.5706922, 14.3976733]}}, {"type": "Feature", "properties": {"name": "Chiroua", "place": "village", "osm_layer": "settlements"}, "geometry": {"type": "Point", "coordinates": [8.9156667, 14.7419748]}}, {"type": "Feature", "properties": {"name": "Guinia", "place": "village", "osm_layer": "settlements"}, "geometry": {"type": "Point", "coordinates": [8.6545985, 14.9626354]}}, {"type": "Feature", "properties": {"name": "Birgui Mari", "place": "village", "osm_layer": "settlements"}, "geometry": {"type": "Point", "coordinates": [8.7870888, 14.9020726]}}, {"type": "Feature", "properties": {"name": "Ringuidi", "place": "village", "osm_layer": "settlements"}, "geometry": {"type": "Point", "coordinates": [8.6632454, 14.8187864]}}, {"type": "Feature", "properties": {"name": "T\u00e9gouma", "place": "village", "osm_layer": "settlements"}, "geometry": {"type": "Point", "coordinates": [8.5020734, 14.8059284]}}, {"type": "Feature", "properties": {"name": "Akourki", "place": "village", "osm_layer": "settlements"}, "geometry": {"type": "Point", "coordinates": [8.4619622, 14.7425167]}}, {"type": "Feature", "properties": {"name": "Gagawa", "place": "village", "osm_layer": "settlements"}, "geometry": {"type": "Point", "coordinates": [8.6268763, 14.726546]}}, {"type": "Feature", "properties": {"name": "Sabon Kafi", "place": "town", "osm_layer": "settlements"}, "geometry": {"type": "Point", "coordinates": [8.7453594, 14.6398902]}}, {"type": "Feature", "properties": {"name": "Kitchi Yaskou", "place": "village", "osm_layer": "settlements"}, "geometry": {"type": "Point", "coordinates": [8.3485015, 14.9968608]}}, {"type": "Feature", "properties": {"name": "Takoukout", "place": "village", "osm_layer": "settlements"}, "geometry": {"type": "Point", "coordinates": [8.4999525, 15.1167612]}}, {"type": "Feature", "properties": {"name": "Maydachi", "place": "village", "osm_layer": "settlements"}, "geometry": {"type": "Point", "coordinates": [8.3528978, 14.5434541]}}, {"type": "Feature", "properties": {"name": "Fal\u00e9nko", "place": "village", "osm_layer": "settlements"}, "geometry": {"type": "Point", "coordinates": [8.5330637, 14.260823]}}, {"type": "Feature", "properties": {"name": "Dan Mani", "place": "village", "osm_layer": "settlements"}, "geometry": {"type": "Point", "coordinates": [6.7100475, 13.2994823]}}, {"type": "Feature", "properties": {"name": "Tchi-kaji", "place": "village", "osm_layer": "settlements"}, "geometry": {"type": "Point", "coordinates": [7.1244303, 13.4041952]}}, {"type": "Feature", "properties": {"name": "Garin Goulbi", "place": "village", "osm_layer": "settlements"}, "geometry": {"type": "Point", "coordinates": [6.9249651, 13.3709451]}}, {"type": "Feature", "properties": {"name": "Ti\u00e9lawa", "place": "village", "osm_layer": "settlements"}, "geometry": {"type": "Point", "coordinates": [6.8490307, 13.1695454]}}, {"type": "Feature", "properties": {"name": "Tchi-dafawa", "place": "hamlet", "osm_layer": "settlements"}, "geometry": {"type": "Point", "coordinates": [7.0233864, 13.146287]}}, {"type": "Feature", "properties": {"name": "Houdel Mag\u00e2j\u00ee", "place": "village", "osm_layer": "settlements"}, "geometry": {"type": "Point", "coordinates": [7.2394115, 13.4294033]}}, {"type": "Feature", "properties": {"name": "Souloulou", "place": "village", "osm_layer": "settlements"}, "geometry": {"type": "Point", "coordinates": [6.4159565, 13.6132968]}}, {"type": "Feature", "properties": {"name": "Kourouma-Batiaka", "place": "village", "osm_layer": "settlements"}, "geometry": {"type": "Point", "coordinates": [6.2945271, 13.6731178]}}, {"type": "Feature", "properties": {"name": "Kouka Tul\u00e9", "place": "village", "osm_layer": "settlements"}, "geometry": {"type": "Point", "coordinates": [6.6371458, 13.7905961]}}, {"type": "Feature", "properties": {"name": "Katar\u00e9", "place": "village", "osm_layer": "settlements"}, "geometry": {"type": "Point", "coordinates": [6.4630736, 13.8867447]}}, {"type": "Feature", "properties": {"name": "Madaoua", "place": "village", "osm_layer": "settlements"}, "geometry": {"type": "Point", "coordinates": [6.4331713, 14.1000529]}}, {"type": "Feature", "properties": {"name": "Takorka", "place": "village", "osm_layer": "settlements"}, "geometry": {"type": "Point", "coordinates": [6.1799427, 13.923897]}}, {"type": "Feature", "properties": {"name": "Mal\u00e9l\u00e9bi", "place": "village", "osm_layer": "settlements"}, "geometry": {"type": "Point", "coordinates": [6.0483868, 13.8225855]}}, {"type": "Feature", "properties": {"name": "Bangui", "place": "town", "osm_layer": "settlements"}, "geometry": {"type": "Point", "coordinates": [6.1940087, 13.6795277]}}, {"type": "Feature", "properties": {"name": "Ourno, Madaoua,Niger", "place": "village", "osm_layer": "settlements"}, "geometry": {"type": "Point", "coordinates": [6.4505505, 14.2990457]}}, {"type": "Feature", "properties": {"name": "Karofan", "place": "village", "osm_layer": "settlements"}, "geometry": {"type": "Point", "coordinates": [6.1525152, 14.3138187]}}, {"type": "Feature", "properties": {"name": "L\u00e9yma", "place": "village", "osm_layer": "settlements"}, "geometry": {"type": "Point", "coordinates": [6.0853894, 14.2320998]}}, {"type": "Feature", "properties": {"name": "Guidan Matchouda", "place": "village", "osm_layer": "settlements"}, "geometry": {"type": "Point", "coordinates": [6.301729, 14.3789901]}}, {"type": "Feature", "properties": {"name": "Birni Lall\u00e9", "place": "village", "osm_layer": "settlements"}, "geometry": {"type": "Point", "coordinates": [6.7629062, 14.4295853]}}, {"type": "Feature", "properties": {"name": "Aj\u00e9koria", "place": "village", "osm_layer": "settlements"}, "geometry": {"type": "Point", "coordinates": [6.7888977, 14.3398055]}}, {"type": "Feature", "properties": {"name": "Kornaka", "place": "town", "osm_layer": "settlements"}, "geometry": {"type": "Point", "coordinates": [6.9017397, 14.1003921]}}, {"type": "Feature", "properties": {"name": "Guidan Lolo", "place": "village", "osm_layer": "settlements"}, "geometry": {"type": "Point", "coordinates": [6.9788047, 14.362845]}}, {"type": "Feature", "properties": {"name": "Maylawa", "place": "village", "osm_layer": "settlements"}, "geometry": {"type": "Point", "coordinates": [7.0605099, 14.4320751]}}, {"type": "Feature", "properties": {"name": "Korohan", "place": "village", "osm_layer": "settlements"}, "geometry": {"type": "Point", "coordinates": [6.5684211, 14.5638253]}}, {"type": "Feature", "properties": {"name": "Loub\u00e9", "place": "village", "osm_layer": "settlements"}, "geometry": {"type": "Point", "coordinates": [6.0371586, 14.6141409]}}, {"type": "Feature", "properties": {"name": "Tabokaki", "place": "village", "osm_layer": "settlements"}, "geometry": {"type": "Point", "coordinates": [6.1556412, 14.6176019]}}, {"type": "Feature", "properties": {"name": "Chadawanka", "place": "village", "osm_layer": "settlements"}, "geometry": {"type": "Point", "coordinates": [6.1234252, 15.0341894]}}, {"type": "Feature", "properties": {"name": "Garoum\u00e9l\u00e9", "place": "village", "osm_layer": "settlements"}, "geometry": {"type": "Point", "coordinates": [12.9658377, 14.119882]}}, {"type": "Feature", "properties": {"name": "Ouorio", "place": "hamlet", "osm_layer": "settlements"}, "geometry": {"type": "Point", "coordinates": [13.2495975, 13.7667561]}}, {"type": "Feature", "properties": {"name": "Ouwaou", "place": "village", "osm_layer": "settlements"}, "geometry": {"type": "Point", "coordinates": [13.0161307, 13.544307]}}, {"type": "Feature", "properties": {"name": "Guesk\u00e9rou", "place": "village", "osm_layer": "settlements"}, "geometry": {"type": "Point", "coordinates": [12.8429613, 13.4796]}}, {"type": "Feature", "properties": {"name": "Boudoum", "place": "village", "osm_layer": "settlements"}, "geometry": {"type": "Point", "coordinates": [12.2554447, 13.164116]}}, {"type": "Feature", "properties": {"name": "Foulatari", "place": "village", "osm_layer": "settlements"}, "geometry": {"type": "Point", "coordinates": [12.056672, 13.55124]}}, {"type": "Feature", "properties": {"name": "Bard\u00e9ri", "place": "village", "osm_layer": "settlements"}, "geometry": {"type": "Point", "coordinates": [12.1865309, 13.6520964]}}, {"type": "Feature", "properties": {"name": "Ch\u00e9ri", "place": "village", "osm_layer": "settlements"}, "geometry": {"type": "Point", "coordinates": [11.3849859, 13.4244788]}}, {"type": "Feature", "properties": {"name": "Dabalya", "place": "village", "osm_layer": "settlements"}, "geometry": {"type": "Point", "coordinates": [10.9347974, 13.4072681]}}, {"type": "Feature", "properties": {"name": "Gorou B\u00e9ri", "place": "hamlet", "osm_layer": "settlements"}, "geometry": {"type": "Point", "coordinates": [2.1599557, 13.6276174]}}, {"type": "Feature", "properties": {"name": "Kossey", "place": "village", "osm_layer": "settlements"}, "geometry": {"type": "Point", "coordinates": [2.0387245, 13.5138991]}}, {"type": "Feature", "properties": {"name": "Ganguel", "place": "village", "osm_layer": "settlements"}, "geometry": {"type": "Point", "coordinates": [2.0418777, 13.5064476]}}, {"type": "Feature", "properties": {"name": "Kariel I", "place": "hamlet", "osm_layer": "settlements"}, "geometry": {"type": "Point", "coordinates": [2.0135249, 13.489162]}}, {"type": "Feature", "properties": {"name": "Karey Gorou", "place": "village", "osm_layer": "settlements"}, "geometry": {"type": "Point", "coordinates": [2.0063241, 13.5368879]}}, {"type": "Feature", "properties": {"name": "Koss\u00e8ye", "place": "village", "osm_layer": "settlements"}, "geometry": {"type": "Point", "coordinates": [2.0262848, 13.54119]}}, {"type": "Feature", "properties": {"name": "Tondibiah", "place": "village", "osm_layer": "settlements"}, "geometry": {"type": "Point", "coordinates": [2.0129876, 13.5637813]}}, {"type": "Feature", "properties": {"name": "Bangoula", "place": "village", "osm_layer": "settlements"}, "geometry": {"type": "Point", "coordinates": [1.994309, 13.6052058]}}, {"type": "Feature", "properties": {"name": "Soumatte", "place": "village", "osm_layer": "settlements"}, "geometry": {"type": "Point", "coordinates": [2.7179633, 14.9480774]}}, {"type": "Feature", "properties": {"name": "Alawa", "place": "village", "osm_layer": "settlements"}, "geometry": {"type": "Point", "coordinates": [7.5428158, 13.675036]}}, {"type": "Feature", "properties": {"name": "Alkou", "place": "village", "osm_layer": "settlements"}, "geometry": {"type": "Point", "coordinates": [7.582895, 13.6835949]}}, {"type": "Feature", "properties": {"name": "Katari", "place": "village", "osm_layer": "settlements"}, "geometry": {"type": "Point", "coordinates": [7.5564787, 13.6887281]}}, {"type": "Feature", "properties": {"name": "Wakasso", "place": "village", "osm_layer": "settlements"}, "geometry": {"type": "Point", "coordinates": [7.5044153, 13.6962973]}}, {"type": "Feature", "properties": {"name": "Dan A\u00efcha", "place": "village", "osm_layer": "settlements"}, "geometry": {"type": "Point", "coordinates": [7.4920235, 13.6743419]}}, {"type": "Feature", "properties": {"name": "Hankaka", "place": "village", "osm_layer": "settlements"}, "geometry": {"type": "Point", "coordinates": [7.4803605, 13.6877987]}}, {"type": "Feature", "properties": {"name": "Dangaladima", "place": "village", "osm_layer": "settlements"}, "geometry": {"type": "Point", "coordinates": [7.4898367, 13.6882944]}}, {"type": "Feature", "properties": {"name": "Kaking", "place": "village", "osm_layer": "settlements"}, "geometry": {"type": "Point", "coordinates": [7.4654903, 13.6397756]}}, {"type": "Feature", "properties": {"name": "Guidandanmalam", "place": "village", "osm_layer": "settlements"}, "geometry": {"type": "Point", "coordinates": [7.487577, 13.635242]}}, {"type": "Feature", "properties": {"name": "Tonkourma", "place": "village", "osm_layer": "settlements"}, "geometry": {"type": "Point", "coordinates": [7.4743725, 13.612254]}}, {"type": "Feature", "properties": {"name": "Kolbou zameydo", "place": "village", "osm_layer": "settlements"}, "geometry": {"type": "Point", "coordinates": [2.9474926, 13.3536995]}}, {"type": "Feature", "properties": {"name": "Malam Tchiloum", "place": "village", "osm_layer": "settlements"}, "geometry": {"type": "Point", "coordinates": [8.5291243, 14.5976937]}}, {"type": "Feature", "properties": {"name": "T\u00e9ouat", "place": "hamlet", "osm_layer": "settlements"}, "geometry": {"type": "Point", "coordinates": [8.1719471, 18.0551034]}}, {"type": "Feature", "properties": {"name": "Krip-Krip", "place": "village", "osm_layer": "settlements"}, "geometry": {"type": "Point", "coordinates": [8.6630231, 18.063379]}}, {"type": "Feature", "properties": {"name": "Afasto", "place": "village", "osm_layer": "settlements"}, "geometry": {"type": "Point", "coordinates": [7.2892622, 18.5579114]}}, {"type": "Feature", "properties": {"name": "Taggafadi", "place": "hamlet", "osm_layer": "settlements"}, "geometry": {"type": "Point", "coordinates": [9.2, 18.533333]}}, {"type": "Feature", "properties": {"name": "Aguellal", "place": "village", "osm_layer": "settlements"}, "geometry": {"type": "Point", "coordinates": [8.1553, 18.7086747]}}, {"type": "Feature", "properties": {"name": "Oubandawaki Makiani", "place": "village", "osm_layer": "settlements"}, "geometry": {"type": "Point", "coordinates": [7.1, 18.95]}}, {"type": "Feature", "properties": {"name": "Taghmert Elagh", "place": "hamlet", "osm_layer": "settlements"}, "geometry": {"type": "Point", "coordinates": [8.4857134, 19.0363873]}}, {"type": "Feature", "properties": {"name": "Inignaoue\u00ef", "place": "hamlet", "osm_layer": "settlements"}, "geometry": {"type": "Point", "coordinates": [8.9931575, 18.9783001]}}, {"type": "Feature", "properties": {"name": "In Azaoua", "place": "village", "osm_layer": "settlements"}, "geometry": {"type": "Point", "coordinates": [7.460833, 20.819444]}}, {"type": "Feature", "properties": {"name": "Emi Tchouma", "place": "hamlet", "osm_layer": "settlements"}, "geometry": {"type": "Point", "coordinates": [12.9333333, 19.3333333]}}, {"type": "Feature", "properties": {"name": "Sara", "place": "village", "osm_layer": "settlements"}, "geometry": {"type": "Point", "coordinates": [12.4666667, 20.7666667]}}, {"type": "Feature", "properties": {"name": "Drigana", "place": "village", "osm_layer": "settlements"}, "geometry": {"type": "Point", "coordinates": [12.4333333, 20.8]}}, {"type": "Feature", "properties": {"name": "Djaba", "place": "village", "osm_layer": "settlements"}, "geometry": {"type": "Point", "coordinates": [12.2833333, 21.0666667]}}, {"type": "Feature", "properties": {"name": "Saguia", "place": "village", "osm_layer": "settlements"}, "geometry": {"type": "Point", "coordinates": [2.1044773, 13.4642262]}}, {"type": "Feature", "properties": {"name": "Koubia", "place": "village", "osm_layer": "settlements"}, "geometry": {"type": "Point", "coordinates": [2.0532662, 13.5503407]}}, {"type": "Feature", "properties": {"name": "Zourag\u00e8n", "place": "village", "osm_layer": "settlements"}, "geometry": {"type": "Point", "coordinates": [3.0203, 14.3921]}}, {"type": "Feature", "properties": {"name": "Koukagana", "place": "village", "osm_layer": "settlements"}, "geometry": {"type": "Point", "coordinates": [3.0412749, 14.5803295]}}, {"type": "Feature", "properties": {"name": "Touribi", "place": "hamlet", "osm_layer": "settlements"}, "geometry": {"type": "Point", "coordinates": [3.1980573, 14.3571632]}}, {"type": "Feature", "properties": {"name": "Danyan", "place": "village", "osm_layer": "settlements"}, "geometry": {"type": "Point", "coordinates": [3.0508799, 14.3850443]}}, {"type": "Feature", "properties": {"name": "Tarhmert", "place": "village", "osm_layer": "settlements"}, "geometry": {"type": "Point", "coordinates": [8.8390097, 18.7659969]}}, {"type": "Feature", "properties": {"name": "Tounga Takoubou", "place": "village", "osm_layer": "settlements"}, "geometry": {"type": "Point", "coordinates": [3.6333333, 11.7166667]}}, {"type": "Feature", "properties": {"name": "Dol\u00e9", "place": "village", "osm_layer": "settlements"}, "geometry": {"type": "Point", "coordinates": [3.629338, 11.7124512]}}, {"type": "Feature", "properties": {"name": "Souraka", "place": "village", "osm_layer": "settlements"}, "geometry": {"type": "Point", "coordinates": [4.1378823, 13.4738033]}}, {"type": "Feature", "properties": {"name": "Maky\u00e9ra", "place": "village", "osm_layer": "settlements"}, "geometry": {"type": "Point", "coordinates": [4.128677, 13.4268425]}}, {"type": "Feature", "properties": {"name": "Nonbokoli", "place": "village", "osm_layer": "settlements"}, "geometry": {"type": "Point", "coordinates": [1.9944176, 12.7396225]}}, {"type": "Feature", "properties": {"name": "Nakigaza", "place": "village", "osm_layer": "settlements"}, "geometry": {"type": "Point", "coordinates": [4.3666667, 13.6166667]}}, {"type": "Feature", "properties": {"name": "Kolfa", "place": "village", "osm_layer": "settlements"}, "geometry": {"type": "Point", "coordinates": [4.3561304, 13.6127683]}}, {"type": "Feature", "properties": {"name": "Dan Ganabay", "place": "village", "osm_layer": "settlements"}, "geometry": {"type": "Point", "coordinates": [4.3, 13.55]}}, {"type": "Feature", "properties": {"name": "Kriram", "place": "village", "osm_layer": "settlements"}, "geometry": {"type": "Point", "coordinates": [13.4658417, 14.4171923]}}, {"type": "Feature", "properties": {"name": "Kobio", "place": "village", "osm_layer": "settlements"}, "geometry": {"type": "Point", "coordinates": [3.8463307, 12.6953492]}}, {"type": "Feature", "properties": {"name": "Kita Kit\u00e9", "place": "village", "osm_layer": "settlements"}, "geometry": {"type": "Point", "coordinates": [4.1333333, 13.1833333]}}, {"type": "Feature", "properties": {"name": "Guidan Samni", "place": "village", "osm_layer": "settlements"}, "geometry": {"type": "Point", "coordinates": [6.0013749, 13.7072067]}}, {"type": "Feature", "properties": {"name": "Guidan Kara", "place": "village", "osm_layer": "settlements"}, "geometry": {"type": "Point", "coordinates": [5.8558853, 13.7562724]}}, {"type": "Feature", "properties": {"name": "Biguel Kankoura", "place": "village", "osm_layer": "settlements"}, "geometry": {"type": "Point", "coordinates": [5.7002256, 13.8199532]}}, {"type": "Feature", "properties": {"name": "Guidan Barao", "place": "village", "osm_layer": "settlements"}, "geometry": {"type": "Point", "coordinates": [5.5141294, 13.8877645]}}, {"type": "Feature", "properties": {"name": "Gounki Arjika", "place": "village", "osm_layer": "settlements"}, "geometry": {"type": "Point", "coordinates": [3.6556014, 12.2511128]}}, {"type": "Feature", "properties": {"name": "Goulay", "place": "village", "osm_layer": "settlements"}, "geometry": {"type": "Point", "coordinates": [13.2488249, 13.5984806]}}, {"type": "Feature", "properties": {"name": "Doli", "place": "village", "osm_layer": "settlements"}, "geometry": {"type": "Point", "coordinates": [3.6394643, 12.4333333]}}, {"type": "Feature", "properties": {"name": "Balifolo", "place": "village", "osm_layer": "settlements"}, "geometry": {"type": "Point", "coordinates": [3.6515342, 12.5167295]}}, {"type": "Feature", "properties": {"name": "Djima Djimi", "place": "village", "osm_layer": "settlements"}, "geometry": {"type": "Point", "coordinates": [4.7173297, 13.7499422]}}, {"type": "Feature", "properties": {"name": "Dantika", "place": "village", "osm_layer": "settlements"}, "geometry": {"type": "Point", "coordinates": [6.6699112, 13.3613427]}}, {"type": "Feature", "properties": {"name": "A. Dachi", "place": "village", "osm_layer": "settlements"}, "geometry": {"type": "Point", "coordinates": [8.9846819, 12.8370756]}}, {"type": "Feature", "properties": {"name": "Marara", "place": "village", "osm_layer": "settlements"}, "geometry": {"type": "Point", "coordinates": [12.6467812, 13.2931394]}}, {"type": "Feature", "properties": {"name": "Boukar-Boutouri", "place": "village", "osm_layer": "settlements"}, "geometry": {"type": "Point", "coordinates": [12.5602814, 13.2310929]}}, {"type": "Feature", "properties": {"name": "Kouanza", "place": "village", "osm_layer": "settlements"}, "geometry": {"type": "Point", "coordinates": [3.2738568, 11.9780044]}}, {"type": "Feature", "properties": {"name": "Rouda", "place": "village", "osm_layer": "settlements"}, "geometry": {"type": "Point", "coordinates": [12.5373155, 13.2076253]}}, {"type": "Feature", "properties": {"name": "Guidan May Douma", "place": "village", "osm_layer": "settlements"}, "geometry": {"type": "Point", "coordinates": [5.9216943, 13.7339797]}}, {"type": "Feature", "properties": {"name": "Garazou", "place": "village", "osm_layer": "settlements"}, "geometry": {"type": "Point", "coordinates": [9.5044268, 14.6373946]}}, {"type": "Feature", "properties": {"name": "Kao Kakil", "place": "village", "osm_layer": "settlements"}, "geometry": {"type": "Point", "coordinates": [10.05, 15.5]}}, {"type": "Feature", "properties": {"name": "Mama Kassa", "place": "village", "osm_layer": "settlements"}, "geometry": {"type": "Point", "coordinates": [12.3, 15.25]}}, {"type": "Feature", "properties": {"name": "Tara", "place": "village", "osm_layer": "settlements"}, "geometry": {"type": "Point", "coordinates": [3.3341916, 11.8989502]}}, {"type": "Feature", "properties": {"name": "Kombo", "place": "hamlet", "osm_layer": "settlements"}, "geometry": {"type": "Point", "coordinates": [3.4229718, 11.8780077]}}, {"type": "Feature", "properties": {"name": "Gata Tounga", "place": "hamlet", "osm_layer": "settlements"}, "geometry": {"type": "Point", "coordinates": [3.4923503, 11.856489]}}, {"type": "Feature", "properties": {"name": "Zanloa Tounga", "place": "village", "osm_layer": "settlements"}, "geometry": {"type": "Point", "coordinates": [3.6037959, 11.733466]}}, {"type": "Feature", "properties": {"name": "Tounouga", "place": "village", "osm_layer": "settlements"}, "geometry": {"type": "Point", "coordinates": [3.623732, 11.800933]}}, {"type": "Feature", "properties": {"name": "Tounga Zim\u00e9raou", "place": "village", "osm_layer": "settlements"}, "geometry": {"type": "Point", "coordinates": [3.582805, 11.7828736]}}, {"type": "Feature", "properties": {"name": "Tounga Zaouri", "place": "village", "osm_layer": "settlements"}, "geometry": {"type": "Point", "coordinates": [3.5829224, 11.7836206]}}, {"type": "Feature", "properties": {"name": "Tounga Zakari", "place": "village", "osm_layer": "settlements"}, "geometry": {"type": "Point", "coordinates": [3.5636867, 11.7449762]}}, {"type": "Feature", "properties": {"name": "Tounga Wondarou", "place": "village", "osm_layer": "settlements"}, "geometry": {"type": "Point", "coordinates": [3.6484336, 11.7430252]}}, {"type": "Feature", "properties": {"name": "Tounga Korfoa", "place": "village", "osm_layer": "settlements"}, "geometry": {"type": "Point", "coordinates": [3.5836855, 11.7833333]}}, {"type": "Feature", "properties": {"name": "Tounga Koma", "place": "village", "osm_layer": "settlements"}, "geometry": {"type": "Point", "coordinates": [3.6218165, 11.749874]}}, {"type": "Feature", "properties": {"name": "Tounga Diargou", "place": "village", "osm_layer": "settlements"}, "geometry": {"type": "Point", "coordinates": [3.65, 11.8]}}, {"type": "Feature", "properties": {"name": "Tahirou Tounga", "place": "village", "osm_layer": "settlements"}, "geometry": {"type": "Point", "coordinates": [3.6, 11.8666667]}}, {"type": "Feature", "properties": {"name": "Ourakoss\u00e9", "place": "village", "osm_layer": "settlements"}, "geometry": {"type": "Point", "coordinates": [3.5997799, 11.8831897]}}, {"type": "Feature", "properties": {"name": "Ladankpira", "place": "village", "osm_layer": "settlements"}, "geometry": {"type": "Point", "coordinates": [3.6363374, 11.7537814]}}, {"type": "Feature", "properties": {"name": "Madougou Babakpara", "place": "village", "osm_layer": "settlements"}, "geometry": {"type": "Point", "coordinates": [3.5979826, 11.7675223]}}, {"type": "Feature", "properties": {"name": "Gwarou Kwara", "place": "village", "osm_layer": "settlements"}, "geometry": {"type": "Point", "coordinates": [3.5987511, 11.7665936]}}, {"type": "Feature", "properties": {"name": "Kanda Koira T\u00e9gui", "place": "village", "osm_layer": "settlements"}, "geometry": {"type": "Point", "coordinates": [3.564044, 11.8185081]}}, {"type": "Feature", "properties": {"name": "Guindogoloma", "place": "village", "osm_layer": "settlements"}, "geometry": {"type": "Point", "coordinates": [3.6166667, 11.7333333]}}, {"type": "Feature", "properties": {"name": "Gatawani Keyna", "place": "village", "osm_layer": "settlements"}, "geometry": {"type": "Point", "coordinates": [3.5666667, 11.8]}}, {"type": "Feature", "properties": {"name": "Gatawani B\u00e9ri", "place": "village", "osm_layer": "settlements"}, "geometry": {"type": "Point", "coordinates": [3.5666667, 11.7833333]}}, {"type": "Feature", "properties": {"name": "Gagu\u00e9r\u00e9", "place": "village", "osm_layer": "settlements"}, "geometry": {"type": "Point", "coordinates": [3.6002201, 11.8833333]}}, {"type": "Feature", "properties": {"name": "Boun\u00e9-Boun\u00e9", "place": "village", "osm_layer": "settlements"}, "geometry": {"type": "Point", "coordinates": [3.5561611, 11.8143098]}}, {"type": "Feature", "properties": {"name": "Babou el Aya", "place": "village", "osm_layer": "settlements"}, "geometry": {"type": "Point", "coordinates": [3.6162916, 11.858379]}}, {"type": "Feature", "properties": {"name": "Bani Zoumbou", "place": "village", "osm_layer": "settlements"}, "geometry": {"type": "Point", "coordinates": [3.599082, 11.7659718]}}, {"type": "Feature", "properties": {"name": "Moussa Tounga", "place": "hamlet", "osm_layer": "settlements"}, "geometry": {"type": "Point", "coordinates": [3.5482514, 11.8687972]}}, {"type": "Feature", "properties": {"name": "Yaya Tounga", "place": "hamlet", "osm_layer": "settlements"}, "geometry": {"type": "Point", "coordinates": [3.2668008, 12.0997954]}}, {"type": "Feature", "properties": {"name": "Tassobon", "place": "village", "osm_layer": "settlements"}, "geometry": {"type": "Point", "coordinates": [3.2615775, 12.0836461]}}, {"type": "Feature", "properties": {"name": "Moyaz\u00e9", "place": "village", "osm_layer": "settlements"}, "geometry": {"type": "Point", "coordinates": [3.2521619, 12.1169604]}}, {"type": "Feature", "properties": {"name": "Marmarou", "place": "village", "osm_layer": "settlements"}, "geometry": {"type": "Point", "coordinates": [3.2666667, 12.1333333]}}, {"type": "Feature", "properties": {"name": "Bal\u00e9goudjo", "place": "village", "osm_layer": "settlements"}, "geometry": {"type": "Point", "coordinates": [3.2273466, 12.1152925]}}, {"type": "Feature", "properties": {"name": "Kour\u00e9gou", "place": "village", "osm_layer": "settlements"}, "geometry": {"type": "Point", "coordinates": [0.9603204, 14.2595439]}}, {"type": "Feature", "properties": {"name": "Fon\u00e9ko", "place": "town", "osm_layer": "settlements"}, "geometry": {"type": "Point", "coordinates": [0.742312, 14.2057371]}}, {"type": "Feature", "properties": {"name": "Doungourou", "place": "town", "osm_layer": "settlements"}, "geometry": {"type": "Point", "coordinates": [0.7532147, 14.3075598]}}, {"type": "Feature", "properties": {"name": "Namga", "place": "village", "osm_layer": "settlements"}, "geometry": {"type": "Point", "coordinates": [1.0331268, 14.1801408]}}, {"type": "Feature", "properties": {"name": "Tessa Goungou", "place": "village", "osm_layer": "settlements"}, "geometry": {"type": "Point", "coordinates": [1.3033, 14.2703]}}, {"type": "Feature", "properties": {"name": "Soudani", "place": "village", "osm_layer": "settlements"}, "geometry": {"type": "Point", "coordinates": [1.2965255, 14.2839373]}}, {"type": "Feature", "properties": {"name": "Sind\u00e8rm\u00e9", "place": "village", "osm_layer": "settlements"}, "geometry": {"type": "Point", "coordinates": [1.3404666, 14.2353171]}}, {"type": "Feature", "properties": {"name": "Sind\u00e8r", "place": "village", "osm_layer": "settlements"}, "geometry": {"type": "Point", "coordinates": [1.3234, 14.2446]}}, {"type": "Feature", "properties": {"name": "Sawani", "place": "village", "osm_layer": "settlements"}, "geometry": {"type": "Point", "coordinates": [1.3345164, 14.255021]}}, {"type": "Feature", "properties": {"name": "Inalakam II", "place": "village", "osm_layer": "settlements"}, "geometry": {"type": "Point", "coordinates": [1.2585794, 14.1409848]}}, {"type": "Feature", "properties": {"name": "Diont\u00e9 Koir\u00e9bio", "place": "village", "osm_layer": "settlements"}, "geometry": {"type": "Point", "coordinates": [1.3293127, 14.2436358]}}, {"type": "Feature", "properties": {"name": "Dangala", "place": "village", "osm_layer": "settlements"}, "geometry": {"type": "Point", "coordinates": [1.3008013, 14.3152476]}}, {"type": "Feature", "properties": {"name": "Nodi", "place": "hamlet", "osm_layer": "settlements"}, "geometry": {"type": "Point", "coordinates": [1.3871135, 14.2498304]}}, {"type": "Feature", "properties": {"name": "Finari Tondey Goura", "place": "village", "osm_layer": "settlements"}, "geometry": {"type": "Point", "coordinates": [1.4013625, 14.2457191]}}, {"type": "Feature", "properties": {"name": "Tillaka\u00efna Koira Z\u00e9no", "place": "village", "osm_layer": "settlements"}, "geometry": {"type": "Point", "coordinates": [1.4503622, 14.227299]}}, {"type": "Feature", "properties": {"name": "Tchirgadji", "place": "hamlet", "osm_layer": "settlements"}, "geometry": {"type": "Point", "coordinates": [1.3845422, 14.2420398]}}, {"type": "Feature", "properties": {"name": "Nawani", "place": "village", "osm_layer": "settlements"}, "geometry": {"type": "Point", "coordinates": [1.4423, 14.2316]}}, {"type": "Feature", "properties": {"name": "Matoum", "place": "village", "osm_layer": "settlements"}, "geometry": {"type": "Point", "coordinates": [1.5146109, 14.1024959]}}, {"type": "Feature", "properties": {"name": "Mari", "place": "village", "osm_layer": "settlements"}, "geometry": {"type": "Point", "coordinates": [1.531603, 14.2433536]}}, {"type": "Feature", "properties": {"name": "Kogoney", "place": "hamlet", "osm_layer": "settlements"}, "geometry": {"type": "Point", "coordinates": [1.3571346, 14.2343146]}}, {"type": "Feature", "properties": {"name": "Foul\u00e9", "place": "village", "osm_layer": "settlements"}, "geometry": {"type": "Point", "coordinates": [1.4805235, 14.1575121]}}, {"type": "Feature", "properties": {"name": "Djindabani", "place": "hamlet", "osm_layer": "settlements"}, "geometry": {"type": "Point", "coordinates": [1.5742651, 14.2252468]}}, {"type": "Feature", "properties": {"name": "Didia", "place": "village", "osm_layer": "settlements"}, "geometry": {"type": "Point", "coordinates": [1.5209893, 14.1245312]}}, {"type": "Feature", "properties": {"name": "Bossa", "place": "village", "osm_layer": "settlements"}, "geometry": {"type": "Point", "coordinates": [1.4114635, 14.2432915]}}, {"type": "Feature", "properties": {"name": "Da\u00efb\u00e9ri", "place": "village", "osm_layer": "settlements"}, "geometry": {"type": "Point", "coordinates": [1.5050446, 14.1596202]}}, {"type": "Feature", "properties": {"name": "N\u00e9ini", "place": "village", "osm_layer": "settlements"}, "geometry": {"type": "Point", "coordinates": [1.4242676, 14.210855]}}, {"type": "Feature", "properties": {"name": "Gour\u00e8l", "place": "village", "osm_layer": "settlements"}, "geometry": {"type": "Point", "coordinates": [1.4057, 14.2213]}}, {"type": "Feature", "properties": {"name": "Kab\u00e9 Kal\u00e8l\u00e8", "place": "village", "osm_layer": "settlements"}, "geometry": {"type": "Point", "coordinates": [1.412, 14.1448]}}, {"type": "Feature", "properties": {"name": "M\u00e9na", "place": "hamlet", "osm_layer": "settlements"}, "geometry": {"type": "Point", "coordinates": [1.6249734, 14.2268652]}}, {"type": "Feature", "properties": {"name": "Kabey", "place": "hamlet", "osm_layer": "settlements"}, "geometry": {"type": "Point", "coordinates": [1.6103768, 14.2464969]}}, {"type": "Feature", "properties": {"name": "Boud\u00e8da", "place": "village", "osm_layer": "settlements"}, "geometry": {"type": "Point", "coordinates": [1.8267208, 14.1709042]}}, {"type": "Feature", "properties": {"name": "Assou Bangou", "place": "village", "osm_layer": "settlements"}, "geometry": {"type": "Point", "coordinates": [1.7389, 14.3229]}}, {"type": "Feature", "properties": {"name": "Saptaka", "place": "village", "osm_layer": "settlements"}, "geometry": {"type": "Point", "coordinates": [1.9650481, 14.1955075]}}, {"type": "Feature", "properties": {"name": "F\u00e9fandou", "place": "village", "osm_layer": "settlements"}, "geometry": {"type": "Point", "coordinates": [1.9192, 14.3344]}}, {"type": "Feature", "properties": {"name": "Bougar", "place": "village", "osm_layer": "settlements"}, "geometry": {"type": "Point", "coordinates": [1.9126118, 14.2972073]}}, {"type": "Feature", "properties": {"name": "Bangoutawa", "place": "village", "osm_layer": "settlements"}, "geometry": {"type": "Point", "coordinates": [1.8447621, 14.1268645]}}, {"type": "Feature", "properties": {"name": "Assou", "place": "village", "osm_layer": "settlements"}, "geometry": {"type": "Point", "coordinates": [1.9628719, 14.2171661]}}, {"type": "Feature", "properties": {"name": "Arigana", "place": "village", "osm_layer": "settlements"}, "geometry": {"type": "Point", "coordinates": [1.88111, 14.320188]}}, {"type": "Feature", "properties": {"name": "Kabanda", "place": "village", "osm_layer": "settlements"}, "geometry": {"type": "Point", "coordinates": [2.00287, 14.12507]}}, {"type": "Feature", "properties": {"name": "Niandou Koara", "place": "village", "osm_layer": "settlements"}, "geometry": {"type": "Point", "coordinates": [2.0237115, 14.1364165]}}, {"type": "Feature", "properties": {"name": "Gam\u00e9di Bangou", "place": "village", "osm_layer": "settlements"}, "geometry": {"type": "Point", "coordinates": [2.0718785, 14.1300165]}}, {"type": "Feature", "properties": {"name": "Koli Tiloa", "place": "village", "osm_layer": "settlements"}, "geometry": {"type": "Point", "coordinates": [2.0684, 14.1665]}}, {"type": "Feature", "properties": {"name": "Bangou Foubi", "place": "village", "osm_layer": "settlements"}, "geometry": {"type": "Point", "coordinates": [2.0048, 14.1643]}}, {"type": "Feature", "properties": {"name": "Bondolo", "place": "village", "osm_layer": "settlements"}, "geometry": {"type": "Point", "coordinates": [2.047, 14.1807]}}, {"type": "Feature", "properties": {"name": "Fondou Kaina", "place": "village", "osm_layer": "settlements"}, "geometry": {"type": "Point", "coordinates": [1.9211, 14.1523]}}, {"type": "Feature", "properties": {"name": "Tonndi Banda", "place": "village", "osm_layer": "settlements"}, "geometry": {"type": "Point", "coordinates": [1.8806, 14.1692]}}, {"type": "Feature", "properties": {"name": "Talkadabey", "place": "village", "osm_layer": "settlements"}, "geometry": {"type": "Point", "coordinates": [2.2997595, 14.312388]}}, {"type": "Feature", "properties": {"name": "Simiri", "place": "town", "osm_layer": "settlements"}, "geometry": {"type": "Point", "coordinates": [2.1333854, 14.1402577]}}, {"type": "Feature", "properties": {"name": "Sad\u00e8yz\u00e9 Koara", "place": "village", "osm_layer": "settlements"}, "geometry": {"type": "Point", "coordinates": [2.1876367, 14.117837]}}, {"type": "Feature", "properties": {"name": "Kanda", "place": "village", "osm_layer": "settlements"}, "geometry": {"type": "Point", "coordinates": [2.2247599, 14.1302]}}, {"type": "Feature", "properties": {"name": "Diginasa", "place": "village", "osm_layer": "settlements"}, "geometry": {"type": "Point", "coordinates": [2.2173, 14.3288]}}, {"type": "Feature", "properties": {"name": "Boli", "place": "village", "osm_layer": "settlements"}, "geometry": {"type": "Point", "coordinates": [2.2598, 14.2068]}}, {"type": "Feature", "properties": {"name": "Anam Tondi", "place": "village", "osm_layer": "settlements"}, "geometry": {"type": "Point", "coordinates": [2.2217109, 14.2859619]}}, {"type": "Feature", "properties": {"name": "Alogorou", "place": "village", "osm_layer": "settlements"}, "geometry": {"type": "Point", "coordinates": [2.310425, 14.1133315]}}, {"type": "Feature", "properties": {"name": "Sortal", "place": "village", "osm_layer": "settlements"}, "geometry": {"type": "Point", "coordinates": [2.2829198, 14.140455]}}, {"type": "Feature", "properties": {"name": "Tombo", "place": "village", "osm_layer": "settlements"}, "geometry": {"type": "Point", "coordinates": [2.2252, 14.1609]}}, {"type": "Feature", "properties": {"name": "Bani", "place": "village", "osm_layer": "settlements"}, "geometry": {"type": "Point", "coordinates": [2.1011589, 14.1455614]}}, {"type": "Feature", "properties": {"name": "Tolkoboy Malo Koara", "place": "village", "osm_layer": "settlements"}, "geometry": {"type": "Point", "coordinates": [2.1431415, 14.2236995]}}, {"type": "Feature", "properties": {"name": "Nin\u00e9founo", "place": "village", "osm_layer": "settlements"}, "geometry": {"type": "Point", "coordinates": [2.1458, 14.2887]}}, {"type": "Feature", "properties": {"name": "Diol\u00e9 Ganda", "place": "village", "osm_layer": "settlements"}, "geometry": {"type": "Point", "coordinates": [2.173732, 14.2994011]}}, {"type": "Feature", "properties": {"name": "THCigo", "place": "village", "osm_layer": "settlements"}, "geometry": {"type": "Point", "coordinates": [2.5258051, 14.2953565]}}, {"type": "Feature", "properties": {"name": "Lahaba", "place": "village", "osm_layer": "settlements"}, "geometry": {"type": "Point", "coordinates": [2.3714, 14.3082]}}, {"type": "Feature", "properties": {"name": "Kasakorou", "place": "village", "osm_layer": "settlements"}, "geometry": {"type": "Point", "coordinates": [2.4802, 14.2384]}}, {"type": "Feature", "properties": {"name": "Gado Koara", "place": "village", "osm_layer": "settlements"}, "geometry": {"type": "Point", "coordinates": [2.4579529, 14.0984876]}}, {"type": "Feature", "properties": {"name": "Korou", "place": "village", "osm_layer": "settlements"}, "geometry": {"type": "Point", "coordinates": [2.4525, 14.1031]}}, {"type": "Feature", "properties": {"name": "Gadanba", "place": "village", "osm_layer": "settlements"}, "geometry": {"type": "Point", "coordinates": [2.4167, 14.17]}}, {"type": "Feature", "properties": {"name": "Sansiliga", "place": "village", "osm_layer": "settlements"}, "geometry": {"type": "Point", "coordinates": [2.4185, 14.224]}}, {"type": "Feature", "properties": {"name": "Bok\u00e8y", "place": "village", "osm_layer": "settlements"}, "geometry": {"type": "Point", "coordinates": [2.3886, 14.2578]}}, {"type": "Feature", "properties": {"name": "Koara Gabo", "place": "village", "osm_layer": "settlements"}, "geometry": {"type": "Point", "coordinates": [2.3398, 14.3054]}}, {"type": "Feature", "properties": {"name": "Namari Bangou", "place": "village", "osm_layer": "settlements"}, "geometry": {"type": "Point", "coordinates": [2.8058, 14.2787]}}, {"type": "Feature", "properties": {"name": "Diab Kaina", "place": "village", "osm_layer": "settlements"}, "geometry": {"type": "Point", "coordinates": [2.6370423, 14.1307977]}}, {"type": "Feature", "properties": {"name": "Diab B\u00e9ri", "place": "village", "osm_layer": "settlements"}, "geometry": {"type": "Point", "coordinates": [2.657, 14.1459]}}, {"type": "Feature", "properties": {"name": "Bala Koara", "place": "village", "osm_layer": "settlements"}, "geometry": {"type": "Point", "coordinates": [2.8037591, 14.234251]}}, {"type": "Feature", "properties": {"name": "Golo Bangou", "place": "village", "osm_layer": "settlements"}, "geometry": {"type": "Point", "coordinates": [2.8046, 14.1543]}}, {"type": "Feature", "properties": {"name": "Kourian Saba", "place": "village", "osm_layer": "settlements"}, "geometry": {"type": "Point", "coordinates": [2.5743819, 14.1670385]}}, {"type": "Feature", "properties": {"name": "Sol\u00e8y Tonka", "place": "village", "osm_layer": "settlements"}, "geometry": {"type": "Point", "coordinates": [2.8559202, 14.1385825]}}, {"type": "Feature", "properties": {"name": "Sol\u00e8y Gano Tondi", "place": "village", "osm_layer": "settlements"}, "geometry": {"type": "Point", "coordinates": [2.8861605, 14.165167]}}, {"type": "Feature", "properties": {"name": "Koronbal", "place": "village", "osm_layer": "settlements"}, "geometry": {"type": "Point", "coordinates": [2.9843, 14.1696]}}, {"type": "Feature", "properties": {"name": "Danyan Goma", "place": "village", "osm_layer": "settlements"}, "geometry": {"type": "Point", "coordinates": [3.0259, 14.2861]}}, {"type": "Feature", "properties": {"name": "Tondi Banda", "place": "village", "osm_layer": "settlements"}, "geometry": {"type": "Point", "coordinates": [2.8667, 14.1165]}}, {"type": "Feature", "properties": {"name": "Wagani", "place": "village", "osm_layer": "settlements"}, "geometry": {"type": "Point", "coordinates": [3.0885, 14.0972]}}, {"type": "Feature", "properties": {"name": "Toulou Ndam\u00e9sa", "place": "village", "osm_layer": "settlements"}, "geometry": {"type": "Point", "coordinates": [3.0839, 14.3042]}}, {"type": "Feature", "properties": {"name": "Toudou", "place": "village", "osm_layer": "settlements"}, "geometry": {"type": "Point", "coordinates": [3.2796, 14.2291]}}, {"type": "Feature", "properties": {"name": "Tigoji", "place": "village", "osm_layer": "settlements"}, "geometry": {"type": "Point", "coordinates": [3.1989, 14.3222]}}, {"type": "Feature", "properties": {"name": "Takatsaba", "place": "village", "osm_layer": "settlements"}, "geometry": {"type": "Point", "coordinates": [3.1521, 14.1689]}}, {"type": "Feature", "properties": {"name": "San\u00e9hen", "place": "village", "osm_layer": "settlements"}, "geometry": {"type": "Point", "coordinates": [3.1579444, 14.1448316]}}, {"type": "Feature", "properties": {"name": "Koro Toulou", "place": "village", "osm_layer": "settlements"}, "geometry": {"type": "Point", "coordinates": [3.1437, 14.1391]}}, {"type": "Feature", "properties": {"name": "Kanya", "place": "village", "osm_layer": "settlements"}, "geometry": {"type": "Point", "coordinates": [3.2174, 14.1005]}}, {"type": "Feature", "properties": {"name": "Farin Toulou", "place": "village", "osm_layer": "settlements"}, "geometry": {"type": "Point", "coordinates": [3.1663, 14.1531]}}, {"type": "Feature", "properties": {"name": "Akorin\u00e9", "place": "village", "osm_layer": "settlements"}, "geometry": {"type": "Point", "coordinates": [3.1603, 14.2508]}}, {"type": "Feature", "properties": {"name": "Kan\u00e9garb\u00e9", "place": "village", "osm_layer": "settlements"}, "geometry": {"type": "Point", "coordinates": [3.1548755, 14.1986548]}}, {"type": "Feature", "properties": {"name": "Zouzouga", "place": "village", "osm_layer": "settlements"}, "geometry": {"type": "Point", "coordinates": [3.2923, 14.1837]}}, {"type": "Feature", "properties": {"name": "Toudouni", "place": "village", "osm_layer": "settlements"}, "geometry": {"type": "Point", "coordinates": [3.336, 14.1714]}}, {"type": "Feature", "properties": {"name": "Taramna", "place": "village", "osm_layer": "settlements"}, "geometry": {"type": "Point", "coordinates": [3.3668, 14.2714]}}, {"type": "Feature", "properties": {"name": "Takawat 2", "place": "village", "osm_layer": "settlements"}, "geometry": {"type": "Point", "coordinates": [3.3628654, 14.2999468]}}, {"type": "Feature", "properties": {"name": "Tahoul\u00e8n", "place": "village", "osm_layer": "settlements"}, "geometry": {"type": "Point", "coordinates": [3.4401831, 14.2956349]}}, {"type": "Feature", "properties": {"name": "Soloa", "place": "village", "osm_layer": "settlements"}, "geometry": {"type": "Point", "coordinates": [3.4582, 14.2339]}}, {"type": "Feature", "properties": {"name": "Serk\u00e9 Ariwa", "place": "village", "osm_layer": "settlements"}, "geometry": {"type": "Point", "coordinates": [3.3622268, 14.191277]}}, {"type": "Feature", "properties": {"name": "Sara\u00e9", "place": "village", "osm_layer": "settlements"}, "geometry": {"type": "Point", "coordinates": [3.4175, 14.1395]}}, {"type": "Feature", "properties": {"name": "Monzo", "place": "village", "osm_layer": "settlements"}, "geometry": {"type": "Point", "coordinates": [3.2928007, 14.1019632]}}, {"type": "Feature", "properties": {"name": "Maray", "place": "village", "osm_layer": "settlements"}, "geometry": {"type": "Point", "coordinates": [3.3567, 14.2765]}}, {"type": "Feature", "properties": {"name": "Maykogo", "place": "village", "osm_layer": "settlements"}, "geometry": {"type": "Point", "coordinates": [3.3259, 14.1298]}}, {"type": "Feature", "properties": {"name": "Malam\u00e9", "place": "village", "osm_layer": "settlements"}, "geometry": {"type": "Point", "coordinates": [3.3459734, 14.1951875]}}, {"type": "Feature", "properties": {"name": "Marak\u00e9", "place": "hamlet", "osm_layer": "settlements"}, "geometry": {"type": "Point", "coordinates": [3.313972, 14.2701939]}}, {"type": "Feature", "properties": {"name": "Magaria", "place": "village", "osm_layer": "settlements"}, "geometry": {"type": "Point", "coordinates": [3.3935, 14.2658]}}, {"type": "Feature", "properties": {"name": "Makani", "place": "village", "osm_layer": "settlements"}, "geometry": {"type": "Point", "coordinates": [3.2889, 14.2361]}}, {"type": "Feature", "properties": {"name": "Kouka", "place": "village", "osm_layer": "settlements"}, "geometry": {"type": "Point", "coordinates": [3.4212341, 14.1113631]}}, {"type": "Feature", "properties": {"name": "Kounou", "place": "village", "osm_layer": "settlements"}, "geometry": {"type": "Point", "coordinates": [3.334128, 14.1561927]}}, {"type": "Feature", "properties": {"name": "Kay\u00e9 Wah\u00e9", "place": "village", "osm_layer": "settlements"}, "geometry": {"type": "Point", "coordinates": [3.4542, 14.1289]}}, {"type": "Feature", "properties": {"name": "Kid\u00e8l", "place": "village", "osm_layer": "settlements"}, "geometry": {"type": "Point", "coordinates": [3.3419, 14.1095436]}}, {"type": "Feature", "properties": {"name": "Kab\u00e9kakongou", "place": "village", "osm_layer": "settlements"}, "geometry": {"type": "Point", "coordinates": [3.2907, 14.3095]}}, {"type": "Feature", "properties": {"name": "Goula", "place": "village", "osm_layer": "settlements"}, "geometry": {"type": "Point", "coordinates": [3.3151682, 14.1522194]}}, {"type": "Feature", "properties": {"name": "Gouloumbouji", "place": "village", "osm_layer": "settlements"}, "geometry": {"type": "Point", "coordinates": [3.3097, 14.166]}}, {"type": "Feature", "properties": {"name": "Gari Mbw\u00e9", "place": "village", "osm_layer": "settlements"}, "geometry": {"type": "Point", "coordinates": [3.3821, 14.2266]}}, {"type": "Feature", "properties": {"name": "Gari Mayaki", "place": "village", "osm_layer": "settlements"}, "geometry": {"type": "Point", "coordinates": [3.3946426, 14.2369839]}}, {"type": "Feature", "properties": {"name": "Garin Elh Mizza", "place": "hamlet", "osm_layer": "settlements"}, "geometry": {"type": "Point", "coordinates": [3.334484, 14.2867476]}}, {"type": "Feature", "properties": {"name": "Gari Irkw\u00e9non", "place": "village", "osm_layer": "settlements"}, "geometry": {"type": "Point", "coordinates": [3.3651024, 14.2312974]}}, {"type": "Feature", "properties": {"name": "Gari Malan", "place": "village", "osm_layer": "settlements"}, "geometry": {"type": "Point", "coordinates": [3.3256, 14.2586]}}, {"type": "Feature", "properties": {"name": "Garin Elh Maj\u00e9", "place": "hamlet", "osm_layer": "settlements"}, "geometry": {"type": "Point", "coordinates": [3.3466923, 14.2932136]}}, {"type": "Feature", "properties": {"name": "Gari El Hadji Had\u00e8m", "place": "village", "osm_layer": "settlements"}, "geometry": {"type": "Point", "coordinates": [3.3255, 14.1447]}}, {"type": "Feature", "properties": {"name": "Gari Ata\u00e8r", "place": "village", "osm_layer": "settlements"}, "geometry": {"type": "Point", "coordinates": [3.3191, 14.1429]}}, {"type": "Feature", "properties": {"name": "Gari Gaziri", "place": "village", "osm_layer": "settlements"}, "geometry": {"type": "Point", "coordinates": [3.4211, 14.2733]}}, {"type": "Feature", "properties": {"name": "Gari Ganndou", "place": "village", "osm_layer": "settlements"}, "geometry": {"type": "Point", "coordinates": [3.3993, 14.2258]}}, {"type": "Feature", "properties": {"name": "Gari Agi", "place": "village", "osm_layer": "settlements"}, "geometry": {"type": "Point", "coordinates": [3.3995766, 14.2469497]}}, {"type": "Feature", "properties": {"name": "Gardi", "place": "village", "osm_layer": "settlements"}, "geometry": {"type": "Point", "coordinates": [3.2927, 14.2459]}}, {"type": "Feature", "properties": {"name": "Dogon Gao Zodi", "place": "village", "osm_layer": "settlements"}, "geometry": {"type": "Point", "coordinates": [3.3396188, 14.1823776]}}, {"type": "Feature", "properties": {"name": "Doumaloha", "place": "village", "osm_layer": "settlements"}, "geometry": {"type": "Point", "coordinates": [3.4158777, 14.2391779]}}, {"type": "Feature", "properties": {"name": "Fouda Gi\u00e9za", "place": "village", "osm_layer": "settlements"}, "geometry": {"type": "Point", "coordinates": [3.4091241, 14.1917207]}}, {"type": "Feature", "properties": {"name": "Danya\u00e9", "place": "village", "osm_layer": "settlements"}, "geometry": {"type": "Point", "coordinates": [3.3671, 14.1085]}}, {"type": "Feature", "properties": {"name": "Djamoun", "place": "village", "osm_layer": "settlements"}, "geometry": {"type": "Point", "coordinates": [3.3725, 14.1759]}}, {"type": "Feature", "properties": {"name": "Chikal Dourgouna", "place": "village", "osm_layer": "settlements"}, "geometry": {"type": "Point", "coordinates": [3.4511, 14.2469]}}, {"type": "Feature", "properties": {"name": "Chikal Lokoko", "place": "village", "osm_layer": "settlements"}, "geometry": {"type": "Point", "coordinates": [3.4673, 14.2527]}}, {"type": "Feature", "properties": {"name": "Bandizan", "place": "village", "osm_layer": "settlements"}, "geometry": {"type": "Point", "coordinates": [3.3236, 14.2138]}}, {"type": "Feature", "properties": {"name": "Bilal Doutchi", "place": "village", "osm_layer": "settlements"}, "geometry": {"type": "Point", "coordinates": [3.4371341, 14.205418]}}, {"type": "Feature", "properties": {"name": "Adohi", "place": "village", "osm_layer": "settlements"}, "geometry": {"type": "Point", "coordinates": [3.4275024, 14.1710582]}}, {"type": "Feature", "properties": {"name": "Gazaou 3", "place": "village", "osm_layer": "settlements"}, "geometry": {"type": "Point", "coordinates": [3.413127, 14.3205805]}}, {"type": "Feature", "properties": {"name": "Daga", "place": "village", "osm_layer": "settlements"}, "geometry": {"type": "Point", "coordinates": [3.370773, 14.2576352]}}, {"type": "Feature", "properties": {"name": "Bagarwa", "place": "village", "osm_layer": "settlements"}, "geometry": {"type": "Point", "coordinates": [3.3041, 14.1593]}}, {"type": "Feature", "properties": {"name": "Amouzata", "place": "village", "osm_layer": "settlements"}, "geometry": {"type": "Point", "coordinates": [3.3126, 14.1135]}}, {"type": "Feature", "properties": {"name": "Agad\u00e8y", "place": "village", "osm_layer": "settlements"}, "geometry": {"type": "Point", "coordinates": [3.3608094, 14.140893]}}, {"type": "Feature", "properties": {"name": "Adoua", "place": "village", "osm_layer": "settlements"}, "geometry": {"type": "Point", "coordinates": [3.3215, 14.1693]}}, {"type": "Feature", "properties": {"name": "Tabkin Kouka", "place": "village", "osm_layer": "settlements"}, "geometry": {"type": "Point", "coordinates": [3.5274, 14.1526]}}, {"type": "Feature", "properties": {"name": "Injer", "place": "village", "osm_layer": "settlements"}, "geometry": {"type": "Point", "coordinates": [3.6023803, 14.1859693]}}, {"type": "Feature", "properties": {"name": "Gworozeng\u00e9", "place": "village", "osm_layer": "settlements"}, "geometry": {"type": "Point", "coordinates": [3.5439, 14.1833]}}, {"type": "Feature", "properties": {"name": "Barwa", "place": "village", "osm_layer": "settlements"}, "geometry": {"type": "Point", "coordinates": [3.5876482, 14.3097998]}}, {"type": "Feature", "properties": {"name": "Toudou", "place": "hamlet", "osm_layer": "settlements"}, "geometry": {"type": "Point", "coordinates": [3.9649329, 14.0926012]}}, {"type": "Feature", "properties": {"name": "Soucoucoutane (Soukoukoutan)", "place": "village", "osm_layer": "settlements"}, "geometry": {"type": "Point", "coordinates": [3.8865, 14.1893]}}, {"type": "Feature", "properties": {"name": "Sagaye", "place": "hamlet", "osm_layer": "settlements"}, "geometry": {"type": "Point", "coordinates": [3.942588, 14.1290203]}}, {"type": "Feature", "properties": {"name": "Sabon Gari", "place": "hamlet", "osm_layer": "settlements"}, "geometry": {"type": "Point", "coordinates": [3.8843283, 14.1639856]}}, {"type": "Feature", "properties": {"name": "Natchira", "place": "village", "osm_layer": "settlements"}, "geometry": {"type": "Point", "coordinates": [3.8403543, 14.2810222]}}, {"type": "Feature", "properties": {"name": "Marina", "place": "village", "osm_layer": "settlements"}, "geometry": {"type": "Point", "coordinates": [3.8072407, 14.1239284]}}, {"type": "Feature", "properties": {"name": "Kwalen Dawa", "place": "village", "osm_layer": "settlements"}, "geometry": {"type": "Point", "coordinates": [3.8193171, 14.1650793]}}, {"type": "Feature", "properties": {"name": "Kourouroub\u00e9", "place": "village", "osm_layer": "settlements"}, "geometry": {"type": "Point", "coordinates": [3.9599781, 14.2381679]}}, {"type": "Feature", "properties": {"name": "Kotay\u00e9", "place": "village", "osm_layer": "settlements"}, "geometry": {"type": "Point", "coordinates": [3.9315462, 14.295703]}}, {"type": "Feature", "properties": {"name": "Gez\u00e9nyan", "place": "village", "osm_layer": "settlements"}, "geometry": {"type": "Point", "coordinates": [3.9538736, 14.2122062]}}, {"type": "Feature", "properties": {"name": "Goumbay\u00e9", "place": "hamlet", "osm_layer": "settlements"}, "geometry": {"type": "Point", "coordinates": [3.9312086, 14.263605]}}, {"type": "Feature", "properties": {"name": "Gari Goungom", "place": "village", "osm_layer": "settlements"}, "geometry": {"type": "Point", "coordinates": [3.921082, 14.1321431]}}, {"type": "Feature", "properties": {"name": "Gadirga Guida", "place": "village", "osm_layer": "settlements"}, "geometry": {"type": "Point", "coordinates": [3.9536669, 14.2366743]}}, {"type": "Feature", "properties": {"name": "Adoua Kessa", "place": "village", "osm_layer": "settlements"}, "geometry": {"type": "Point", "coordinates": [3.8514404, 14.2040621]}}, {"type": "Feature", "properties": {"name": "Baraya Saidou", "place": "village", "osm_layer": "settlements"}, "geometry": {"type": "Point", "coordinates": [3.9628262, 14.1250471]}}, {"type": "Feature", "properties": {"name": "Akoukou", "place": "village", "osm_layer": "settlements"}, "geometry": {"type": "Point", "coordinates": [3.8348087, 14.2930593]}}, {"type": "Feature", "properties": {"name": "Goudey Amadou", "place": "village", "osm_layer": "settlements"}, "geometry": {"type": "Point", "coordinates": [3.86886, 14.3344778]}}, {"type": "Feature", "properties": {"name": "Sabara", "place": "village", "osm_layer": "settlements"}, "geometry": {"type": "Point", "coordinates": [3.8493854, 14.1835783]}}, {"type": "Feature", "properties": {"name": "Toumboul\u00e9", "place": "village", "osm_layer": "settlements"}, "geometry": {"type": "Point", "coordinates": [3.8433125, 14.210692]}}, {"type": "Feature", "properties": {"name": "Baraya Maidawa", "place": "hamlet", "osm_layer": "settlements"}, "geometry": {"type": "Point", "coordinates": [3.9807928, 14.1420334]}}, {"type": "Feature", "properties": {"name": "Yemeye", "place": "village", "osm_layer": "settlements"}, "geometry": {"type": "Point", "coordinates": [3.9869419, 14.2386564]}}, {"type": "Feature", "properties": {"name": "Kantcha 2", "place": "hamlet", "osm_layer": "settlements"}, "geometry": {"type": "Point", "coordinates": [4.0025963, 14.2619175]}}, {"type": "Feature", "properties": {"name": "Mai Gu\u00e9b\u00e9", "place": "village", "osm_layer": "settlements"}, "geometry": {"type": "Point", "coordinates": [3.8489263, 14.2499372]}}, {"type": "Feature", "properties": {"name": "Yalim\u00e9 Ahamett", "place": "village", "osm_layer": "settlements"}, "geometry": {"type": "Point", "coordinates": [4.2291872, 14.3194764]}}, {"type": "Feature", "properties": {"name": "Tawassay\u00e9", "place": "village", "osm_layer": "settlements"}, "geometry": {"type": "Point", "coordinates": [4.2427609, 14.2968532]}}, {"type": "Feature", "properties": {"name": "Mandatchi", "place": "village", "osm_layer": "settlements"}, "geometry": {"type": "Point", "coordinates": [4.2355703, 14.2207952]}}, {"type": "Feature", "properties": {"name": "Taramna", "place": "village", "osm_layer": "settlements"}, "geometry": {"type": "Point", "coordinates": [4.2357757, 14.2436013]}}, {"type": "Feature", "properties": {"name": "Yiloa", "place": "village", "osm_layer": "settlements"}, "geometry": {"type": "Point", "coordinates": [4.1980196, 14.1442388]}}, {"type": "Feature", "properties": {"name": "Barakata", "place": "village", "osm_layer": "settlements"}, "geometry": {"type": "Point", "coordinates": [4.1536912, 14.2499511]}}, {"type": "Feature", "properties": {"name": "Tsaouna", "place": "village", "osm_layer": "settlements"}, "geometry": {"type": "Point", "coordinates": [4.1242477, 14.241014]}}, {"type": "Feature", "properties": {"name": "Kassoura", "place": "village", "osm_layer": "settlements"}, "geometry": {"type": "Point", "coordinates": [4.1007725, 14.297611]}},