{"type": "FeatureCollection", "features": [{"type": "Feature", "properties": {"name": "Monrovia", "place": "city", "osm_layer": "settlements"}, "geometry": {"type": "Point", "coordinates": [-10.8060492, 6.3203562]}}, {"type": "Feature", "properties": {"name": "Nyenyen", "place": "town", "osm_layer": "settlements"}, "geometry": {"type": "Point", "coordinates": [-10.3621364, 6.8006164]}}, {"type": "Feature", "properties": {"name": "Ganta", "place": "town", "osm_layer": "settlements"}, "geometry": {"type": "Point", "coordinates": [-8.986099, 7.2334773]}}, {"type": "Feature", "properties": {"name": "Tappita City", "place": "town", "osm_layer": "settlements"}, "geometry": {"type": "Point", "coordinates": [-8.8607395, 6.4918433]}}, {"type": "Feature", "properties": {"name": "Zwedru", "place": "town", "osm_layer": "settlements"}, "geometry": {"type": "Point", "coordinates": [-8.1342735, 6.068724]}}, {"type": "Feature", "properties": {"name": null, "place": "village", "osm_layer": "settlements"}, "geometry": {"type": "Point", "coordinates": [-8.4046888, 4.7282784]}}, {"type": "Feature", "properties": {"name": "River Cess", "place": "village", "osm_layer": "settlements"}, "geometry": {"type": "Point", "coordinates": [-9.5817149, 5.4597547]}}, {"type": "Feature", "properties": {"name": "Yekepa", "place": "town", "osm_layer": "settlements"}, "geometry": {"type": "Point", "coordinates": [-8.5419387, 7.5753094]}}, {"type": "Feature", "properties": {"name": "Thuo", "place": "village", "osm_layer": "settlements"}, "geometry": {"type": "Point", "coordinates": [-8.5018075, 7.5959958]}}, {"type": "Feature", "properties": {"name": "Saclepea", "place": "town", "osm_layer": "settlements"}, "geometry": {"type": "Point", "coordinates": [-8.8408732, 6.9638105]}}, {"type": "Feature", "properties": {"name": "Pleebo", "place": "town", "osm_layer": "settlements"}, "geometry": {"type": "Point", "coordinates": [-7.6734903, 4.5888482]}}, {"type": "Feature", "properties": {"name": "Palala City", "place": "village", "osm_layer": "settlements"}, "geometry": {"type": "Point", "coordinates": [-9.2866272, 7.0010073]}}, {"type": "Feature", "properties": {"name": "Gbartala", "place": "town", "osm_layer": "settlements"}, "geometry": {"type": "Point", "coordinates": [-9.6766257, 6.8834507]}}, {"type": "Feature", "properties": {"name": "Totota", "place": "town", "osm_layer": "settlements"}, "geometry": {"type": "Point", "coordinates": [-9.94135, 6.809807]}}, {"type": "Feature", "properties": {"name": "Bopolu", "place": "village", "osm_layer": "settlements"}, "geometry": {"type": "Point", "coordinates": [-10.4875, 7.06667]}}, {"type": "Feature", "properties": {"name": "Tubmanburg", "place": "town", "osm_layer": "settlements"}, "geometry": {"type": "Point", "coordinates": [-10.824815, 6.8686923]}}, {"type": "Feature", "properties": {"name": "Bo", "place": "village", "osm_layer": "settlements"}, "geometry": {"type": "Point", "coordinates": [-11.37392, 7.01177]}}, {"type": "Feature", "properties": {"name": "Klay", "place": "town", "osm_layer": "settlements"}, "geometry": {"type": "Point", "coordinates": [-10.8736128, 6.695187]}}, {"type": "Feature", "properties": {"name": "Bong Mine Town", "place": "town", "osm_layer": "settlements"}, "geometry": {"type": "Point", "coordinates": [-10.3506355, 6.8149831]}}, {"type": "Feature", "properties": {"name": "Kongo", "place": "village", "osm_layer": "settlements"}, "geometry": {"type": "Point", "coordinates": [-11.13999, 7.3279]}}, {"type": "Feature", "properties": {"name": "Gbarplay", "place": "village", "osm_layer": "settlements"}, "geometry": {"type": "Point", "coordinates": [-8.47853, 7.33367]}}, {"type": "Feature", "properties": {"name": "Sarkolay", "place": "village", "osm_layer": "settlements"}, "geometry": {"type": "Point", "coordinates": [-8.47204, 7.32152]}}, {"type": "Feature", "properties": {"name": "Saleu", "place": "village", "osm_layer": "settlements"}, "geometry": {"type": "Point", "coordinates": [-8.3279408, 7.225364]}}, {"type": "Feature", "properties": {"name": "Duoplay", "place": "village", "osm_layer": "settlements"}, "geometry": {"type": "Point", "coordinates": [-8.42206, 7.28411]}}, {"type": "Feature", "properties": {"name": "Kissayplay", "place": "hamlet", "osm_layer": "settlements"}, "geometry": {"type": "Point", "coordinates": [-8.3718674, 7.2777072]}}, {"type": "Feature", "properties": {"name": "Kenlay #2", "place": "hamlet", "osm_layer": "settlements"}, "geometry": {"type": "Point", "coordinates": [-8.3851, 7.28779]}}, {"type": "Feature", "properties": {"name": "Kpantiaplay / Custom", "place": "village", "osm_layer": "settlements"}, "geometry": {"type": "Point", "coordinates": [-8.36636, 7.25763]}}, {"type": "Feature", "properties": {"name": "Larpea 2", "place": "village", "osm_layer": "settlements"}, "geometry": {"type": "Point", "coordinates": [-8.4822104, 7.2713606]}}, {"type": "Feature", "properties": {"name": "Larpea 2", "place": "village", "osm_layer": "settlements"}, "geometry": {"type": "Point", "coordinates": [-8.4241241, 7.2827951]}}, {"type": "Feature", "properties": {"name": "Daoplay", "place": "hamlet", "osm_layer": "settlements"}, "geometry": {"type": "Point", "coordinates": [-8.38011, 7.28483]}}, {"type": "Feature", "properties": {"name": "Zorgowee", "place": "village", "osm_layer": "settlements"}, "geometry": {"type": "Point", "coordinates": [-8.5793501, 7.3379943]}}, {"type": "Feature", "properties": {"name": "D\u00e9inneu", "place": "village", "osm_layer": "settlements"}, "geometry": {"type": "Point", "coordinates": [-8.2803667, 6.9748902]}}, {"type": "Feature", "properties": {"name": "Bahn", "place": "village", "osm_layer": "settlements"}, "geometry": {"type": "Point", "coordinates": [-8.720793, 7.0251024]}}, {"type": "Feature", "properties": {"name": "Bakoubli", "place": "village", "osm_layer": "settlements"}, "geometry": {"type": "Point", "coordinates": [-8.410143, 6.468044]}}, {"type": "Feature", "properties": {"name": "Pahoubli", "place": "village", "osm_layer": "settlements"}, "geometry": {"type": "Point", "coordinates": [-8.3748705, 6.3970027]}}, {"type": "Feature", "properties": {"name": "Glarlay", "place": "village", "osm_layer": "settlements"}, "geometry": {"type": "Point", "coordinates": [-8.4535119, 6.7113855]}}, {"type": "Feature", "properties": {"name": "Graie Township", "place": "village", "osm_layer": "settlements"}, "geometry": {"type": "Point", "coordinates": [-8.77203, 6.70975]}}, {"type": "Feature", "properties": {"name": "Zuatuo", "place": "village", "osm_layer": "settlements"}, "geometry": {"type": "Point", "coordinates": [-8.7227636, 6.7464148]}}, {"type": "Feature", "properties": {"name": "Old Yourpea", "place": "village", "osm_layer": "settlements"}, "geometry": {"type": "Point", "coordinates": [-8.5089315, 6.7113316]}}, {"type": "Feature", "properties": {"name": "Zuolay", "place": "village", "osm_layer": "settlements"}, "geometry": {"type": "Point", "coordinates": [-8.78823, 6.67533]}}, {"type": "Feature", "properties": {"name": "Duogee", "place": "village", "osm_layer": "settlements"}, "geometry": {"type": "Point", "coordinates": [-8.5123283, 6.2711076]}}, {"type": "Feature", "properties": {"name": "Tian", "place": "village", "osm_layer": "settlements"}, "geometry": {"type": "Point", "coordinates": [-8.48748, 6.26426]}}, {"type": "Feature", "properties": {"name": "Toe", "place": "town", "osm_layer": "settlements"}, "geometry": {"type": "Point", "coordinates": [-8.5570558, 6.4070721]}}, {"type": "Feature", "properties": {"name": "Zleh Town", "place": "town", "osm_layer": "settlements"}, "geometry": {"type": "Point", "coordinates": [-8.4333606, 6.2266684]}}, {"type": "Feature", "properties": {"name": "Dou\u00e9ibli", "place": "village", "osm_layer": "settlements"}, "geometry": {"type": "Point", "coordinates": [-8.1466633, 6.3109775]}}, {"type": "Feature", "properties": {"name": "Tiene", "place": "village", "osm_layer": "settlements"}, "geometry": {"type": "Point", "coordinates": [-11.31279, 6.96751]}}, {"type": "Feature", "properties": {"name": "Songa", "place": "hamlet", "osm_layer": "settlements"}, "geometry": {"type": "Point", "coordinates": [-10.347306, 6.2446169]}}, {"type": "Feature", "properties": {"name": "Snafu Dock", "place": "hamlet", "osm_layer": "settlements"}, "geometry": {"type": "Point", "coordinates": [-10.3803267, 6.1644469]}}, {"type": "Feature", "properties": {"name": "Kakata", "place": "town", "osm_layer": "settlements"}, "geometry": {"type": "Point", "coordinates": [-10.3488074, 6.532326]}}, {"type": "Feature", "properties": {"name": "Buchanan", "place": "town", "osm_layer": "settlements"}, "geometry": {"type": "Point", "coordinates": [-10.0494002, 5.88129]}}, {"type": "Feature", "properties": {"name": "Greenville", "place": "town", "osm_layer": "settlements"}, "geometry": {"type": "Point", "coordinates": [-9.03889, 5.01111]}}, {"type": "Feature", "properties": {"name": "Bensonville City", "place": "village", "osm_layer": "settlements"}, "geometry": {"type": "Point", "coordinates": [-10.61428, 6.44725]}}, {"type": "Feature", "properties": {"name": "Gbarnga", "place": "city", "osm_layer": "settlements"}, "geometry": {"type": "Point", "coordinates": [-9.470905, 6.996269]}}, {"type": "Feature", "properties": {"name": "Voinjama", "place": "town", "osm_layer": "settlements"}, "geometry": {"type": "Point", "coordinates": [-9.7525832, 8.422419]}}, {"type": "Feature", "properties": {"name": "Ganglota", "place": "village", "osm_layer": "settlements"}, "geometry": {"type": "Point", "coordinates": [-9.49344, 7.42275]}}, {"type": "Feature", "properties": {"name": "Gbalatoah", "place": "village", "osm_layer": "settlements"}, "geometry": {"type": "Point", "coordinates": [-9.5003439, 7.3341155]}}, {"type": "Feature", "properties": {"name": "Gorlu", "place": "village", "osm_layer": "settlements"}, "geometry": {"type": "Point", "coordinates": [-9.47899, 7.52012]}}, {"type": "Feature", "properties": {"name": "Beyan", "place": "village", "osm_layer": "settlements"}, "geometry": {"type": "Point", "coordinates": [-9.49974, 7.34063]}}, {"type": "Feature", "properties": {"name": "Salayea", "place": "village", "osm_layer": "settlements"}, "geometry": {"type": "Point", "coordinates": [-9.4936317, 7.6165491]}}, {"type": "Feature", "properties": {"name": "Tailemai", "place": "village", "osm_layer": "settlements"}, "geometry": {"type": "Point", "coordinates": [-9.4428116, 7.6642149]}}, {"type": "Feature", "properties": {"name": "Telemu", "place": "village", "osm_layer": "settlements"}, "geometry": {"type": "Point", "coordinates": [-9.49877, 7.56261]}}, {"type": "Feature", "properties": {"name": "Central Gboayeela", "place": "village", "osm_layer": "settlements"}, "geometry": {"type": "Point", "coordinates": [-8.80219, 7.40566]}}, {"type": "Feature", "properties": {"name": null, "place": "village", "osm_layer": "settlements"}, "geometry": {"type": "Point", "coordinates": [-8.8027641, 7.4114018]}}, {"type": "Feature", "properties": {"name": "Ojo", "place": "village", "osm_layer": "settlements"}, "geometry": {"type": "Point", "coordinates": [-9.0271987, 6.4345409]}}, {"type": "Feature", "properties": {"name": "Boyee", "place": "village", "osm_layer": "settlements"}, "geometry": {"type": "Point", "coordinates": [-9.0175093, 6.4595706]}}, {"type": "Feature", "properties": {"name": "Karpue", "place": "hamlet", "osm_layer": "settlements"}, "geometry": {"type": "Point", "coordinates": [-9.03617, 5.2374768]}}, {"type": "Feature", "properties": {"name": "Kahn", "place": "hamlet", "osm_layer": "settlements"}, "geometry": {"type": "Point", "coordinates": [-8.99813, 5.11792]}}, {"type": "Feature", "properties": {"name": "Louisiana", "place": "hamlet", "osm_layer": "settlements"}, "geometry": {"type": "Point", "coordinates": [-9.01926, 5.03285]}}, {"type": "Feature", "properties": {"name": "Jone's", "place": "hamlet", "osm_layer": "settlements"}, "geometry": {"type": "Point", "coordinates": [-9.00829, 5.05077]}}, {"type": "Feature", "properties": {"name": "Nyannue", "place": "hamlet", "osm_layer": "settlements"}, "geometry": {"type": "Point", "coordinates": [-8.99226, 5.05291]}}, {"type": "Feature", "properties": {"name": "Kabada", "place": "hamlet", "osm_layer": "settlements"}, "geometry": {"type": "Point", "coordinates": [-8.9950828, 5.0792582]}}, {"type": "Feature", "properties": {"name": "Garraway", "place": "village", "osm_layer": "settlements"}, "geometry": {"type": "Point", "coordinates": [-7.9327884, 4.4978868]}}, {"type": "Feature", "properties": {"name": null, "place": "village", "osm_layer": "settlements"}, "geometry": {"type": "Point", "coordinates": [-9.6949242, 5.5815757]}}, {"type": "Feature", "properties": {"name": null, "place": "village", "osm_layer": "settlements"}, "geometry": {"type": "Point", "coordinates": [-9.8296328, 5.7048361]}}, {"type": "Feature", "properties": {"name": null, "place": "village", "osm_layer": "settlements"}, "geometry": {"type": "Point", "coordinates": [-9.6730621, 5.7532519]}}, {"type": "Feature", "properties": {"name": "Jacob Logan", "place": "hamlet", "osm_layer": "settlements"}, "geometry": {"type": "Point", "coordinates": [-9.9218406, 5.8347959]}}, {"type": "Feature", "properties": {"name": "Ben Town", "place": "village", "osm_layer": "settlements"}, "geometry": {"type": "Point", "coordinates": [-9.8275241, 5.6966882]}}, {"type": "Feature", "properties": {"name": "Charlesville", "place": "village", "osm_layer": "settlements"}, "geometry": {"type": "Point", "coordinates": [-10.3762769, 6.2054203]}}, {"type": "Feature", "properties": {"name": "Dayblay", "place": "hamlet", "osm_layer": "settlements"}, "geometry": {"type": "Point", "coordinates": [-8.625556, 6.123056]}}, {"type": "Feature", "properties": {"name": "Didia", "place": "hamlet", "osm_layer": "settlements"}, "geometry": {"type": "Point", "coordinates": [-9.8725808, 5.7149874]}}, {"type": "Feature", "properties": {"name": "Edina", "place": "hamlet", "osm_layer": "settlements"}, "geometry": {"type": "Point", "coordinates": [-10.077202, 5.9239302]}}, {"type": "Feature", "properties": {"name": "Hammaton", "place": "hamlet", "osm_layer": "settlements"}, "geometry": {"type": "Point", "coordinates": [-9.6232848, 5.5670866]}}, {"type": "Feature", "properties": {"name": "Hartford", "place": "village", "osm_layer": "settlements"}, "geometry": {"type": "Point", "coordinates": [-10.0200197, 6.0025111]}}, {"type": "Feature", "properties": {"name": "Kpoweh", "place": "hamlet", "osm_layer": "settlements"}, "geometry": {"type": "Point", "coordinates": [-9.900269, 5.7243767]}}, {"type": "Feature", "properties": {"name": "Sekepo / Kru", "place": "hamlet", "osm_layer": "settlements"}, "geometry": {"type": "Point", "coordinates": [-9.780407, 5.608438]}}, {"type": "Feature", "properties": {"name": "Grand Whea Village", "place": "hamlet", "osm_layer": "settlements"}, "geometry": {"type": "Point", "coordinates": [-9.75405, 5.61686]}}, {"type": "Feature", "properties": {"name": "Westa", "place": "hamlet", "osm_layer": "settlements"}, "geometry": {"type": "Point", "coordinates": [-9.6799249, 5.5358607]}}, {"type": "Feature", "properties": {"name": "Gb\u00e9sono\u00ef", "place": "village", "osm_layer": "settlements"}, "geometry": {"type": "Point", "coordinates": [-8.8791552, 7.2834265]}}, {"type": "Feature", "properties": {"name": null, "place": "village", "osm_layer": "settlements"}, "geometry": {"type": "Point", "coordinates": [-8.9847375, 7.2610805]}}, {"type": "Feature", "properties": {"name": null, "place": "village", "osm_layer": "settlements"}, "geometry": {"type": "Point", "coordinates": [-8.9854073, 7.2645159]}}, {"type": "Feature", "properties": {"name": "Gbedin", "place": "village", "osm_layer": "settlements"}, "geometry": {"type": "Point", "coordinates": [-8.8354895, 7.2754752]}}, {"type": "Feature", "properties": {"name": null, "place": "hamlet", "osm_layer": "settlements"}, "geometry": {"type": "Point", "coordinates": [-8.843467, 7.2834903]}}, {"type": "Feature", "properties": {"name": null, "place": "village", "osm_layer": "settlements"}, "geometry": {"type": "Point", "coordinates": [-8.8393935, 7.2835091]}}, {"type": "Feature", "properties": {"name": "Yalenzou", "place": "town", "osm_layer": "settlements"}, "geometry": {"type": "Point", "coordinates": [-8.688867, 7.709427]}}, {"type": "Feature", "properties": {"name": "Yomou", "place": "village", "osm_layer": "settlements"}, "geometry": {"type": "Point", "coordinates": [-8.6905343, 7.6966447]}}, {"type": "Feature", "properties": {"name": "Kpaou", "place": "village", "osm_layer": "settlements"}, "geometry": {"type": "Point", "coordinates": [-9.3986184, 7.8546737]}}, {"type": "Feature", "properties": {"name": "Oulim\u00e9", "place": "village", "osm_layer": "settlements"}, "geometry": {"type": "Point", "coordinates": [-9.3703274, 7.8150394]}}, {"type": "Feature", "properties": {"name": "Yoa", "place": "village", "osm_layer": "settlements"}, "geometry": {"type": "Point", "coordinates": [-9.3841548, 7.4459574]}}, {"type": "Feature", "properties": {"name": "Oligu\u00e9z\u00e9zou", "place": "village", "osm_layer": "settlements"}, "geometry": {"type": "Point", "coordinates": [-9.3850714, 7.9225898]}}, {"type": "Feature", "properties": {"name": "Gba", "place": "village", "osm_layer": "settlements"}, "geometry": {"type": "Point", "coordinates": [-8.5386477, 7.6192482]}}, {"type": "Feature", "properties": {"name": null, "place": "village", "osm_layer": "settlements"}, "geometry": {"type": "Point", "coordinates": [-10.8187946, 6.8527919]}}, {"type": "Feature", "properties": {"name": "Bandella Bengu", "place": "hamlet", "osm_layer": "settlements"}, "geometry": {"type": "Point", "coordinates": [-10.0986761, 8.4841981]}}, {"type": "Feature", "properties": {"name": "Bandalo Torkowu", "place": "hamlet", "osm_layer": "settlements"}, "geometry": {"type": "Point", "coordinates": [-10.1218698, 8.4998681]}}, {"type": "Feature", "properties": {"name": "Bandenin Melimu", "place": "hamlet", "osm_layer": "settlements"}, "geometry": {"type": "Point", "coordinates": [-10.0579911, 8.5017193]}}, {"type": "Feature", "properties": {"name": "Bandalor Dai Kongor", "place": "hamlet", "osm_layer": "settlements"}, "geometry": {"type": "Point", "coordinates": [-10.1832105, 8.4973967]}}, {"type": "Feature", "properties": {"name": "Balladu Bakia", "place": "hamlet", "osm_layer": "settlements"}, "geometry": {"type": "Point", "coordinates": [-10.1520235, 8.511571]}}, {"type": "Feature", "properties": {"name": "Gbassialo", "place": "hamlet", "osm_layer": "settlements"}, "geometry": {"type": "Point", "coordinates": [-10.0241942, 8.544896]}}, {"type": "Feature", "properties": {"name": "Blaza", "place": "hamlet", "osm_layer": "settlements"}, "geometry": {"type": "Point", "coordinates": [-10.1193992, 8.5128362]}}, {"type": "Feature", "properties": {"name": "Kondobengu-Waum", "place": "hamlet", "osm_layer": "settlements"}, "geometry": {"type": "Point", "coordinates": [-10.1327725, 8.4788218]}}, {"type": "Feature", "properties": {"name": "Kudu", "place": "hamlet", "osm_layer": "settlements"}, "geometry": {"type": "Point", "coordinates": [-10.1342299, 8.515394]}}, {"type": "Feature", "properties": {"name": "Kpelloe- Wuam", "place": "hamlet", "osm_layer": "settlements"}, "geometry": {"type": "Point", "coordinates": [-10.0842552, 8.4665577]}}, {"type": "Feature", "properties": {"name": "Kiesseney", "place": "hamlet", "osm_layer": "settlements"}, "geometry": {"type": "Point", "coordinates": [-10.1497806, 8.5358033]}}, {"type": "Feature", "properties": {"name": "Lorloe - Waum", "place": "hamlet", "osm_layer": "settlements"}, "geometry": {"type": "Point", "coordinates": [-10.105147, 8.5010094]}}, {"type": "Feature", "properties": {"name": "Lepaloe Tembio", "place": "hamlet", "osm_layer": "settlements"}, "geometry": {"type": "Point", "coordinates": [-10.1648041, 8.4926182]}}, {"type": "Feature", "properties": {"name": "Koindu Punda", "place": "hamlet", "osm_layer": "settlements"}, "geometry": {"type": "Point", "coordinates": [-10.0625358, 8.4914782]}}, {"type": "Feature", "properties": {"name": "Dangandu", "place": "hamlet", "osm_layer": "settlements"}, "geometry": {"type": "Point", "coordinates": [-10.1944717, 8.481173]}}, {"type": "Feature", "properties": {"name": "Wokouama", "place": "hamlet", "osm_layer": "settlements"}, "geometry": {"type": "Point", "coordinates": [-10.053981, 8.536516]}}, {"type": "Feature", "properties": {"name": "Punda", "place": "hamlet", "osm_layer": "settlements"}, "geometry": {"type": "Point", "coordinates": [-10.0719498, 8.5014802]}}, {"type": "Feature", "properties": {"name": "Solumba", "place": "hamlet", "osm_layer": "settlements"}, "geometry": {"type": "Point", "coordinates": [-10.1613805, 8.497388]}}, {"type": "Feature", "properties": {"name": "Tama", "place": "hamlet", "osm_layer": "settlements"}, "geometry": {"type": "Point", "coordinates": [-10.0977537, 8.4747947]}}, {"type": "Feature", "properties": {"name": "Tarma", "place": "hamlet", "osm_layer": "settlements"}, "geometry": {"type": "Point", "coordinates": [-10.105633, 8.4885114]}}, {"type": "Feature", "properties": {"name": "Tailikorlor", "place": "hamlet", "osm_layer": "settlements"}, "geometry": {"type": "Point", "coordinates": [-10.1854128, 8.4921902]}}, {"type": "Feature", "properties": {"name": "Melimala", "place": "hamlet", "osm_layer": "settlements"}, "geometry": {"type": "Point", "coordinates": [-10.1168068, 8.4929966]}}, {"type": "Feature", "properties": {"name": "Lepalloe Yealloe", "place": "hamlet", "osm_layer": "settlements"}, "geometry": {"type": "Point", "coordinates": [-10.1130237, 8.4795793]}}, {"type": "Feature", "properties": {"name": null, "place": "hamlet", "osm_layer": "settlements"}, "geometry": {"type": "Point", "coordinates": [-10.2168584, 8.492951]}}, {"type": "Feature", "properties": {"name": "Lepaloe-Melimu", "place": "hamlet", "osm_layer": "settlements"}, "geometry": {"type": "Point", "coordinates": [-10.0717531, 8.4948151]}}, {"type": "Feature", "properties": {"name": "Talobengu", "place": "hamlet", "osm_layer": "settlements"}, "geometry": {"type": "Point", "coordinates": [-10.1057614, 8.5173779]}}, {"type": "Feature", "properties": {"name": "Wobu Kenor", "place": "hamlet", "osm_layer": "settlements"}, "geometry": {"type": "Point", "coordinates": [-10.1184891, 8.5260904]}}, {"type": "Feature", "properties": {"name": "Boyah - II", "place": "village", "osm_layer": "settlements"}, "geometry": {"type": "Point", "coordinates": [-10.3053375, 8.2677476]}}, {"type": "Feature", "properties": {"name": "Magbadu", "place": "hamlet", "osm_layer": "settlements"}, "geometry": {"type": "Point", "coordinates": [-10.3285739, 8.2356243]}}, {"type": "Feature", "properties": {"name": "Kolahun", "place": "village", "osm_layer": "settlements"}, "geometry": {"type": "Point", "coordinates": [-10.08444, 8.28694]}}, {"type": "Feature", "properties": {"name": "Foya City", "place": "town", "osm_layer": "settlements"}, "geometry": {"type": "Point", "coordinates": [-10.1960454, 8.3586488]}}, {"type": "Feature", "properties": {"name": "Mendicorma", "place": "village", "osm_layer": "settlements"}, "geometry": {"type": "Point", "coordinates": [-10.2712935, 8.4637441]}}, {"type": "Feature", "properties": {"name": "Kelima Bendu", "place": "village", "osm_layer": "settlements"}, "geometry": {"type": "Point", "coordinates": [-10.2564719, 8.4577213]}}, {"type": "Feature", "properties": {"name": "Vahun", "place": "village", "osm_layer": "settlements"}, "geometry": {"type": "Point", "coordinates": [-10.2811262, 8.2768585]}}, {"type": "Feature", "properties": {"name": "Mbabahun", "place": "village", "osm_layer": "settlements"}, "geometry": {"type": "Point", "coordinates": [-10.13169, 8.2903]}}, {"type": "Feature", "properties": {"name": "Gonon", "place": "village", "osm_layer": "settlements"}, "geometry": {"type": "Point", "coordinates": [-9.0911434, 7.2317934]}}, {"type": "Feature", "properties": {"name": "Bakouma Kama", "place": "hamlet", "osm_layer": "settlements"}, "geometry": {"type": "Point", "coordinates": [-9.989435, 8.467293]}}, {"type": "Feature", "properties": {"name": "Gbangama", "place": "hamlet", "osm_layer": "settlements"}, "geometry": {"type": "Point", "coordinates": [-10.049656, 8.513654]}}, {"type": "Feature", "properties": {"name": "Beindou", "place": "hamlet", "osm_layer": "settlements"}, "geometry": {"type": "Point", "coordinates": [-10.2627712, 8.4949378]}}, {"type": "Feature", "properties": {"name": "Bobou\u00e9loua", "place": "hamlet", "osm_layer": "settlements"}, "geometry": {"type": "Point", "coordinates": [-9.9309622, 8.5366476]}}, {"type": "Feature", "properties": {"name": "Bokodiama\u00ef", "place": "hamlet", "osm_layer": "settlements"}, "geometry": {"type": "Point", "coordinates": [-9.7363297, 8.5427257]}}, {"type": "Feature", "properties": {"name": "Bombou", "place": "hamlet", "osm_layer": "settlements"}, "geometry": {"type": "Point", "coordinates": [-9.9725088, 8.4776067]}}, {"type": "Feature", "properties": {"name": "Bouri\u00e9dou", "place": "hamlet", "osm_layer": "settlements"}, "geometry": {"type": "Point", "coordinates": [-9.862411, 8.5546597]}}, {"type": "Feature", "properties": {"name": "Beldou", "place": "hamlet", "osm_layer": "settlements"}, "geometry": {"type": "Point", "coordinates": [-9.9572054, 8.5291066]}}, {"type": "Feature", "properties": {"name": "Dazaragu\u00e9zia", "place": "hamlet", "osm_layer": "settlements"}, "geometry": {"type": "Point", "coordinates": [-9.7072153, 8.4699172]}}, {"type": "Feature", "properties": {"name": "Diomandou", "place": "hamlet", "osm_layer": "settlements"}, "geometry": {"type": "Point", "coordinates": [-9.5865328, 8.4561013]}}, {"type": "Feature", "properties": {"name": "Fassaba Kama", "place": "hamlet", "osm_layer": "settlements"}, "geometry": {"type": "Point", "coordinates": [-10.037921, 8.488674]}}, {"type": "Feature", "properties": {"name": "Fob\u00e9lo", "place": "hamlet", "osm_layer": "settlements"}, "geometry": {"type": "Point", "coordinates": [-9.953906, 8.490707]}}, {"type": "Feature", "properties": {"name": "Foniassou", "place": "hamlet", "osm_layer": "settlements"}, "geometry": {"type": "Point", "coordinates": [-9.934246, 8.530395]}}, {"type": "Feature", "properties": {"name": "Ko\u00efdemai", "place": "village", "osm_layer": "settlements"}, "geometry": {"type": "Point", "coordinates": [-9.8241777, 8.5147893]}}, {"type": "Feature", "properties": {"name": "Gou\u00e9tt\u00e9ourama\u00ef", "place": "hamlet", "osm_layer": "settlements"}, "geometry": {"type": "Point", "coordinates": [-9.800939, 8.5349143]}}, {"type": "Feature", "properties": {"name": "Kotizou", "place": "village", "osm_layer": "settlements"}, "geometry": {"type": "Point", "coordinates": [-9.6070074, 8.4495132]}}, {"type": "Feature", "properties": {"name": "Kilab\u00e9r\u00e9ma\u00ef", "place": "hamlet", "osm_layer": "settlements"}, "geometry": {"type": "Point", "coordinates": [-9.7557467, 8.5683473]}}, {"type": "Feature", "properties": {"name": "K\u00f6k\u00f6ssou Kama", "place": "hamlet", "osm_layer": "settlements"}, "geometry": {"type": "Point", "coordinates": [-10.043601, 8.437001]}}, {"type": "Feature", "properties": {"name": "K\u00f6k\u00f6ssou T\u00e9koulo", "place": "hamlet", "osm_layer": "settlements"}, "geometry": {"type": "Point", "coordinates": [-9.9467277, 8.5439862]}}, {"type": "Feature", "properties": {"name": "Kokou\u00e9lassou", "place": "hamlet", "osm_layer": "settlements"}, "geometry": {"type": "Point", "coordinates": [-9.935137, 8.524764]}}, {"type": "Feature", "properties": {"name": "Komkploumai", "place": "hamlet", "osm_layer": "settlements"}, "geometry": {"type": "Point", "coordinates": [-9.7342883, 8.5112149]}}, {"type": "Feature", "properties": {"name": "Kouelazou", "place": "hamlet", "osm_layer": "settlements"}, "geometry": {"type": "Point", "coordinates": [-9.897009, 8.551152]}}, {"type": "Feature", "properties": {"name": "Krapotazou", "place": "hamlet", "osm_layer": "settlements"}, "geometry": {"type": "Point", "coordinates": [-9.855763, 8.5447792]}}, {"type": "Feature", "properties": {"name": "Lingo", "place": "hamlet", "osm_layer": "settlements"}, "geometry": {"type": "Point", "coordinates": [-9.8825267, 8.5230177]}}, {"type": "Feature", "properties": {"name": "Loupomai", "place": "hamlet", "osm_layer": "settlements"}, "geometry": {"type": "Point", "coordinates": [-9.4676088, 8.2189664]}}, {"type": "Feature", "properties": {"name": "Madioma\u00ef", "place": "hamlet", "osm_layer": "settlements"}, "geometry": {"type": "Point", "coordinates": [-9.5386752, 8.4158931]}}, {"type": "Feature", "properties": {"name": "Mo\u00efdiaro", "place": "hamlet", "osm_layer": "settlements"}, "geometry": {"type": "Point", "coordinates": [-9.62453, 8.4795533]}}, {"type": "Feature", "properties": {"name": "Gnawalazou", "place": "village", "osm_layer": "settlements"}, "geometry": {"type": "Point", "coordinates": [-9.5483777, 8.3866035]}}, {"type": "Feature", "properties": {"name": "N\u2019D\u00e9r\u00e9ou", "place": "hamlet", "osm_layer": "settlements"}, "geometry": {"type": "Point", "coordinates": [-9.6959262, 8.5048559]}}, {"type": "Feature", "properties": {"name": "Douloun", "place": "hamlet", "osm_layer": "settlements"}, "geometry": {"type": "Point", "coordinates": [-10.0526766, 8.4523581]}}, {"type": "Feature", "properties": {"name": "Wabengou", "place": "hamlet", "osm_layer": "settlements"}, "geometry": {"type": "Point", "coordinates": [-10.018765, 8.513948]}}, {"type": "Feature", "properties": {"name": "Outala", "place": "hamlet", "osm_layer": "settlements"}, "geometry": {"type": "Point", "coordinates": [-9.8399758, 8.5136055]}}, {"type": "Feature", "properties": {"name": "Panziazou", "place": "hamlet", "osm_layer": "settlements"}, "geometry": {"type": "Point", "coordinates": [-9.7056193, 8.5453884]}}, {"type": "Feature", "properties": {"name": "Sassama Kama", "place": "hamlet", "osm_layer": "settlements"}, "geometry": {"type": "Point", "coordinates": [-10.01715, 8.473375]}}, {"type": "Feature", "properties": {"name": "Sembekoloma", "place": "hamlet", "osm_layer": "settlements"}, "geometry": {"type": "Point", "coordinates": [-9.9953736, 8.4777418]}}, {"type": "Feature", "properties": {"name": "Sound\u00e8dou", "place": "hamlet", "osm_layer": "settlements"}, "geometry": {"type": "Point", "coordinates": [-9.4592976, 8.2877627]}}, {"type": "Feature", "properties": {"name": "Taoulela", "place": "village", "osm_layer": "settlements"}, "geometry": {"type": "Point", "coordinates": [-9.8592138, 8.5146908]}}, {"type": "Feature", "properties": {"name": "Tanaguiz\u00e8sou", "place": "hamlet", "osm_layer": "settlements"}, "geometry": {"type": "Point", "coordinates": [-9.7861913, 8.5548017]}}, {"type": "Feature", "properties": {"name": "Tyomolo Owet", "place": "hamlet", "osm_layer": "settlements"}, "geometry": {"type": "Point", "coordinates": [-9.978244, 8.495323]}}, {"type": "Feature", "properties": {"name": "Tekoulo", "place": "village", "osm_layer": "settlements"}, "geometry": {"type": "Point", "coordinates": [-9.953858, 8.542579]}}, {"type": "Feature", "properties": {"name": "Yaramba", "place": "hamlet", "osm_layer": "settlements"}, "geometry": {"type": "Point", "coordinates": [-10.1840659, 8.509079]}}, {"type": "Feature", "properties": {"name": "Kpassagizia", "place": "village", "osm_layer": "settlements"}, "geometry": {"type": "Point", "coordinates": [-9.4392615, 8.0160108]}}, {"type": "Feature", "properties": {"name": "Ziggida", "place": "village", "osm_layer": "settlements"}, "geometry": {"type": "Point", "coordinates": [-9.48425, 8.03726]}}, {"type": "Feature", "properties": {"name": "Kulukpasu", "place": "hamlet", "osm_layer": "settlements"}, "geometry": {"type": "Point", "coordinates": [-9.4208547, 8.0579888]}}, {"type": "Feature", "properties": {"name": "Vetesu", "place": "hamlet", "osm_layer": "settlements"}, "geometry": {"type": "Point", "coordinates": [-9.6036, 8.0711]}}, {"type": "Feature", "properties": {"name": "Bedezebai Town", "place": "hamlet", "osm_layer": "settlements"}, "geometry": {"type": "Point", "coordinates": [-9.857389, 8.0802685]}}, {"type": "Feature", "properties": {"name": "Zuelamei", "place": "hamlet", "osm_layer": "settlements"}, "geometry": {"type": "Point", "coordinates": [-9.7675716, 8.137983]}}, {"type": "Feature", "properties": {"name": "Bariwen", "place": "hamlet", "osm_layer": "settlements"}, "geometry": {"type": "Point", "coordinates": [-9.65009, 8.1548]}}, {"type": "Feature", "properties": {"name": "Nekeba I", "place": "hamlet", "osm_layer": "settlements"}, "geometry": {"type": "Point", "coordinates": [-9.60364, 8.15268]}}, {"type": "Feature", "properties": {"name": "Wobeyammai Town Cente", "place": "village", "osm_layer": "settlements"}, "geometry": {"type": "Point", "coordinates": [-9.8445468, 8.1707536]}}, {"type": "Feature", "properties": {"name": "Karzah Town Center", "place": "hamlet", "osm_layer": "settlements"}, "geometry": {"type": "Point", "coordinates": [-9.8008024, 8.1712464]}}, {"type": "Feature", "properties": {"name": "Balakpalasu", "place": "hamlet", "osm_layer": "settlements"}, "geometry": {"type": "Point", "coordinates": [-9.69275, 8.17067]}}, {"type": "Feature", "properties": {"name": "Duogomai Town Center", "place": "hamlet", "osm_layer": "settlements"}, "geometry": {"type": "Point", "coordinates": [-9.73081, 8.18428]}}, {"type": "Feature", "properties": {"name": "Lutisu Town Center", "place": "hamlet", "osm_layer": "settlements"}, "geometry": {"type": "Point", "coordinates": [-9.65744, 8.19621]}}, {"type": "Feature", "properties": {"name": "Barwen", "place": "hamlet", "osm_layer": "settlements"}, "geometry": {"type": "Point", "coordinates": [-9.5613512, 8.2018339]}}, {"type": "Feature", "properties": {"name": "Bortusu", "place": "hamlet", "osm_layer": "settlements"}, "geometry": {"type": "Point", "coordinates": [-9.75006, 8.2036]}}, {"type": "Feature", "properties": {"name": "Kalayezia Town Center", "place": "hamlet", "osm_layer": "settlements"}, "geometry": {"type": "Point", "coordinates": [-9.78744, 8.21057]}}, {"type": "Feature", "properties": {"name": "Mabossu", "place": "hamlet", "osm_layer": "settlements"}, "geometry": {"type": "Point", "coordinates": [-9.8269713, 8.2467736]}}, {"type": "Feature", "properties": {"name": "Bulor", "place": "hamlet", "osm_layer": "settlements"}, "geometry": {"type": "Point", "coordinates": [-9.6251, 8.2656]}}, {"type": "Feature", "properties": {"name": "Walledasu", "place": "hamlet", "osm_layer": "settlements"}, "geometry": {"type": "Point", "coordinates": [-9.7726051, 8.2574453]}}, {"type": "Feature", "properties": {"name": "Barkedu", "place": "village", "osm_layer": "settlements"}, "geometry": {"type": "Point", "coordinates": [-9.6340644, 8.2933262]}}, {"type": "Feature", "properties": {"name": "Tussu", "place": "hamlet", "osm_layer": "settlements"}, "geometry": {"type": "Point", "coordinates": [-9.5604733, 8.3048395]}}, {"type": "Feature", "properties": {"name": "Lormai", "place": "hamlet", "osm_layer": "settlements"}, "geometry": {"type": "Point", "coordinates": [-9.79736, 8.32195]}}, {"type": "Feature", "properties": {"name": "Dayzabah", "place": "hamlet", "osm_layer": "settlements"}, "geometry": {"type": "Point", "coordinates": [-9.72012, 8.31969]}}, {"type": "Feature", "properties": {"name": "Jarmulor", "place": "hamlet", "osm_layer": "settlements"}, "geometry": {"type": "Point", "coordinates": [-9.5934289, 8.3243206]}}, {"type": "Feature", "properties": {"name": "Lazelemai", "place": "hamlet", "osm_layer": "settlements"}, "geometry": {"type": "Point", "coordinates": [-9.79207, 8.36617]}}, {"type": "Feature", "properties": {"name": "Dukoh", "place": "hamlet", "osm_layer": "settlements"}, "geometry": {"type": "Point", "coordinates": [-9.7540626, 8.3451641]}}, {"type": "Feature", "properties": {"name": "Kannela", "place": "hamlet", "osm_layer": "settlements"}, "geometry": {"type": "Point", "coordinates": [-9.5642163, 8.3535307]}}, {"type": "Feature", "properties": {"name": "Lukamai", "place": "hamlet", "osm_layer": "settlements"}, "geometry": {"type": "Point", "coordinates": [-9.4918917, 8.3598595]}}, {"type": "Feature", "properties": {"name": "Samodu", "place": "hamlet", "osm_layer": "settlements"}, "geometry": {"type": "Point", "coordinates": [-9.6592151, 8.3548382]}}, {"type": "Feature", "properties": {"name": "Sazanor", "place": "hamlet", "osm_layer": "settlements"}, "geometry": {"type": "Point", "coordinates": [-9.6311982, 8.36655]}}, {"type": "Feature", "properties": {"name": "Malamai", "place": "hamlet", "osm_layer": "settlements"}, "geometry": {"type": "Point", "coordinates": [-9.7594, 8.38527]}}, {"type": "Feature", "properties": {"name": "Gbegbedu", "place": "hamlet", "osm_layer": "settlements"}, "geometry": {"type": "Point", "coordinates": [-9.6622697, 8.4054011]}}, {"type": "Feature", "properties": {"name": "Marvekonnedu", "place": "village", "osm_layer": "settlements"}, "geometry": {"type": "Point", "coordinates": [-9.6706291, 8.427412]}}, {"type": "Feature", "properties": {"name": null, "place": "hamlet", "osm_layer": "settlements"}, "geometry": {"type": "Point", "coordinates": [-10.2951004, 8.1898065]}}, {"type": "Feature", "properties": {"name": "Keykalahun", "place": "hamlet", "osm_layer": "settlements"}, "geometry": {"type": "Point", "coordinates": [-10.0450006, 8.1991809]}}, {"type": "Feature", "properties": {"name": "Ndambu", "place": "hamlet", "osm_layer": "settlements"}, "geometry": {"type": "Point", "coordinates": [-10.0814996, 8.2162269]}}, {"type": "Feature", "properties": {"name": "Sondorkorlor", "place": "hamlet", "osm_layer": "settlements"}, "geometry": {"type": "Point", "coordinates": [-10.29335, 8.22991]}}, {"type": "Feature", "properties": {"name": "Sambesuan", "place": "hamlet", "osm_layer": "settlements"}, "geometry": {"type": "Point", "coordinates": [-10.2887162, 8.2602521]}}, {"type": "Feature", "properties": {"name": "Sadu Passia", "place": "hamlet", "osm_layer": "settlements"}, "geometry": {"type": "Point", "coordinates": [-10.1789003, 8.4226907]}}, {"type": "Feature", "properties": {"name": "Kortuvela Town Center", "place": "hamlet", "osm_layer": "settlements"}, "geometry": {"type": "Point", "coordinates": [-10.0053467, 8.4111059]}}, {"type": "Feature", "properties": {"name": "Boondo", "place": "hamlet", "osm_layer": "settlements"}, "geometry": {"type": "Point", "coordinates": [-10.1189139, 8.4183081]}}, {"type": "Feature", "properties": {"name": "Kelima Pumbor", "place": "hamlet", "osm_layer": "settlements"}, "geometry": {"type": "Point", "coordinates": [-10.2510989, 8.4154403]}}, {"type": "Feature", "properties": {"name": "Betejama", "place": "village", "osm_layer": "settlements"}, "geometry": {"type": "Point", "coordinates": [-9.8266778, 8.4199754]}}, {"type": "Feature", "properties": {"name": "Lorloe", "place": "hamlet", "osm_layer": "settlements"}, "geometry": {"type": "Point", "coordinates": [-10.2238491, 8.4300503]}}, {"type": "Feature", "properties": {"name": "Porluma", "place": "village", "osm_layer": "settlements"}, "geometry": {"type": "Point", "coordinates": [-10.1145995, 8.4289388]}}, {"type": "Feature", "properties": {"name": "Telkpelembu Town Centre", "place": "hamlet", "osm_layer": "settlements"}, "geometry": {"type": "Point", "coordinates": [-9.9900478, 8.4406136]}}, {"type": "Feature", "properties": {"name": "Mamai", "place": "hamlet", "osm_layer": "settlements"}, "geometry": {"type": "Point", "coordinates": [-9.8761365, 8.4260888]}}, {"type": "Feature", "properties": {"name": "Borndine", "place": "hamlet", "osm_layer": "settlements"}, "geometry": {"type": "Point", "coordinates": [-10.1074433, 8.4366399]}}, {"type": "Feature", "properties": {"name": "Lawalazu", "place": "village", "osm_layer": "settlements"}, "geometry": {"type": "Point", "coordinates": [-9.8450007, 8.4510338]}}, {"type": "Feature", "properties": {"name": "Gbongboru", "place": "hamlet", "osm_layer": "settlements"}, "geometry": {"type": "Point", "coordinates": [-10.2839106, 8.45077]}}, {"type": "Feature", "properties": {"name": "Sakpawa- Tormandu", "place": "hamlet", "osm_layer": "settlements"}, "geometry": {"type": "Point", "coordinates": [-10.1884811, 8.4490131]}}, {"type": "Feature", "properties": {"name": "Nyandemoilahun Town Centre", "place": "village", "osm_layer": "settlements"}, "geometry": {"type": "Point", "coordinates": [-9.9600257, 8.4440992]}}, {"type": "Feature", "properties": {"name": "Koisua", "place": "hamlet", "osm_layer": "settlements"}, "geometry": {"type": "Point", "coordinates": [-10.1149005, 8.446398]}}, {"type": "Feature", "properties": {"name": "Killima", "place": "hamlet", "osm_layer": "settlements"}, "geometry": {"type": "Point", "coordinates": [-10.2752252, 8.4529707]}}, {"type": "Feature", "properties": {"name": "Sevelemai", "place": "hamlet", "osm_layer": "settlements"}, "geometry": {"type": "Point", "coordinates": [-9.9149225, 8.4543851]}}, {"type": "Feature", "properties": {"name": "Loleonin", "place": "hamlet", "osm_layer": "settlements"}, "geometry": {"type": "Point", "coordinates": [-10.0893669, 8.4481344]}}, {"type": "Feature", "properties": {"name": "Massabagai - I", "place": "hamlet", "osm_layer": "settlements"}, "geometry": {"type": "Point", "coordinates": [-10.0709232, 8.4568291]}}, {"type": "Feature", "properties": {"name": "Kondodu", "place": "hamlet", "osm_layer": "settlements"}, "geometry": {"type": "Point", "coordinates": [-10.1959253, 8.4653463]}}, {"type": "Feature", "properties": {"name": "Kandama", "place": "hamlet", "osm_layer": "settlements"}, "geometry": {"type": "Point", "coordinates": [-10.2651112, 8.4573277]}}, {"type": "Feature", "properties": {"name": "Kornorsue - II", "place": "hamlet", "osm_layer": "settlements"}, "geometry": {"type": "Point", "coordinates": [-10.1072193, 8.4588804]}}, {"type": "Feature", "properties": {"name": "Wotalah", "place": "hamlet", "osm_layer": "settlements"}, "geometry": {"type": "Point", "coordinates": [-9.9031399, 8.4589725]}}, {"type": "Feature", "properties": {"name": "Kparmbu", "place": "hamlet", "osm_layer": "settlements"}, "geometry": {"type": "Point", "coordinates": [-10.0661033, 8.4651986]}}, {"type": "Feature", "properties": {"name": "Weezeazu", "place": "hamlet", "osm_layer": "settlements"}, "geometry": {"type": "Point", "coordinates": [-9.8650795, 8.4752921]}}, {"type": "Feature", "properties": {"name": "Tobogizizu", "place": "village", "osm_layer": "settlements"}, "geometry": {"type": "Point", "coordinates": [-9.9216059, 8.4737291]}}, {"type": "Feature", "properties": {"name": "Jallamia Water Side", "place": "hamlet", "osm_layer": "settlements"}, "geometry": {"type": "Point", "coordinates": [-9.8189232, 8.493869]}}, {"type": "Feature", "properties": {"name": "Anglasu", "place": "hamlet", "osm_layer": "settlements"}, "geometry": {"type": "Point", "coordinates": [-9.8557504, 8.4914036]}}, {"type": "Feature", "properties": {"name": "Sokalazou", "place": "hamlet", "osm_layer": "settlements"}, "geometry": {"type": "Point", "coordinates": [-9.961687, 8.482661]}}, {"type": "Feature", "properties": {"name": "Kugbemai", "place": "village", "osm_layer": "settlements"}, "geometry": {"type": "Point", "coordinates": [-9.7698099, 8.5074121]}}, {"type": "Feature", "properties": {"name": "Yassadou", "place": "hamlet", "osm_layer": "settlements"}, "geometry": {"type": "Point", "coordinates": [-9.9725359, 8.5053796]}}, {"type": "Feature", "properties": {"name": "Lokilibah", "place": "hamlet", "osm_layer": "settlements"}, "geometry": {"type": "Point", "coordinates": [-9.7805913, 8.5224716]}}, {"type": "Feature", "properties": {"name": "Bilin", "place": "hamlet", "osm_layer": "settlements"}, "geometry": {"type": "Point", "coordinates": [-9.985821, 8.521843]}}, {"type": "Feature", "properties": {"name": "Vonema", "place": "village", "osm_layer": "settlements"}, "geometry": {"type": "Point", "coordinates": [-9.7573207, 8.5326362]}}, {"type": "Feature", "properties": {"name": "Fassabema", "place": "hamlet", "osm_layer": "settlements"}, "geometry": {"type": "Point", "coordinates": [-9.9528112, 8.5383425]}}, {"type": "Feature", "properties": {"name": "Botamba", "place": "hamlet", "osm_layer": "settlements"}, "geometry": {"type": "Point", "coordinates": [-10.1235286, 8.3401211]}}, {"type": "Feature", "properties": {"name": "Bettesue", "place": "hamlet", "osm_layer": "settlements"}, "geometry": {"type": "Point", "coordinates": [-10.1201024, 8.4045112]}}, {"type": "Feature", "properties": {"name": "Bondowalahun Number Two", "place": "hamlet", "osm_layer": "settlements"}, "geometry": {"type": "Point", "coordinates": [-10.1950528, 8.0962464]}}, {"type": "Feature", "properties": {"name": "Bunimbu", "place": "hamlet", "osm_layer": "settlements"}, "geometry": {"type": "Point", "coordinates": [-10.186976, 8.2858626]}}, {"type": "Feature", "properties": {"name": "Fangalahun", "place": "village", "osm_layer": "settlements"}, "geometry": {"type": "Point", "coordinates": [-10.04077, 8.31297]}}, {"type": "Feature", "properties": {"name": "Gbeilahun", "place": "hamlet", "osm_layer": "settlements"}, "geometry": {"type": "Point", "coordinates": [-10.2417665, 8.1088626]}}, {"type": "Feature", "properties": {"name": "Gelema", "place": "hamlet", "osm_layer": "settlements"}, "geometry": {"type": "Point", "coordinates": [-10.17133, 8.25961]}}, {"type": "Feature", "properties": {"name": "Hangalah", "place": "hamlet", "osm_layer": "settlements"}, "geometry": {"type": "Point", "coordinates": [-10.0380574, 8.1219653]}}, {"type": "Feature", "properties": {"name": "Jingbelahun", "place": "hamlet", "osm_layer": "settlements"}, "geometry": {"type": "Point", "coordinates": [-10.1011508, 8.2451654]}}, {"type": "Feature", "properties": {"name": "Woudu", "place": "hamlet", "osm_layer": "settlements"}, "geometry": {"type": "Point", "coordinates": [-10.20064, 8.3072]}}, {"type": "Feature", "properties": {"name": "Kolehewa", "place": "hamlet", "osm_layer": "settlements"}, "geometry": {"type": "Point", "coordinates": [-10.11172, 8.34613]}}, {"type": "Feature", "properties": {"name": "Kimbalahuh", "place": "hamlet", "osm_layer": "settlements"}, "geometry": {"type": "Point", "coordinates": [-10.1454596, 8.1357645]}}, {"type": "Feature", "properties": {"name": "Kimbalahun I", "place": "hamlet", "osm_layer": "settlements"}, "geometry": {"type": "Point", "coordinates": [-10.1926971, 8.1287257]}}, {"type": "Feature", "properties": {"name": "Koilahun", "place": "hamlet", "osm_layer": "settlements"}, "geometry": {"type": "Point", "coordinates": [-10.1073446, 8.2315869]}}, {"type": "Feature", "properties": {"name": "Koindu", "place": "hamlet", "osm_layer": "settlements"}, "geometry": {"type": "Point", "coordinates": [-10.1874152, 8.3483716]}}, {"type": "Feature", "properties": {"name": "Kondobengu", "place": "hamlet", "osm_layer": "settlements"}, "geometry": {"type": "Point", "coordinates": [-10.1951899, 8.2916213]}}, {"type": "Feature", "properties": {"name": "Kpanbilah", "place": "hamlet", "osm_layer": "settlements"}, "geometry": {"type": "Point", "coordinates": [-10.2010327, 8.3136845]}}, {"type": "Feature", "properties": {"name": "Kpademai T", "place": "village", "osm_layer": "settlements"}, "geometry": {"type": "Point", "coordinates": [-9.9079266, 8.2118719]}}, {"type": "Feature", "properties": {"name": "Kpangbalamai", "place": "hamlet", "osm_layer": "settlements"}, "geometry": {"type": "Point", "coordinates": [-9.9875942, 8.2716945]}}, {"type": "Feature", "properties": {"name": "Kpakamai", "place": "hamlet", "osm_layer": "settlements"}, "geometry": {"type": "Point", "coordinates": [-9.9304735, 8.2650139]}}, {"type": "Feature", "properties": {"name": "Mambah", "place": "hamlet", "osm_layer": "settlements"}, "geometry": {"type": "Point", "coordinates": [-10.1820626, 8.2532863]}}, {"type": "Feature", "properties": {"name": "Maungiasu", "place": "village", "osm_layer": "settlements"}, "geometry": {"type": "Point", "coordinates": [-10.0586113, 8.1500822]}}, {"type": "Feature", "properties": {"name": "Mawulahun", "place": "hamlet", "osm_layer": "settlements"}, "geometry": {"type": "Point", "coordinates": [-10.139078, 8.2750252]}}, {"type": "Feature", "properties": {"name": "Porruwu", "place": "hamlet", "osm_layer": "settlements"}, "geometry": {"type": "Point", "coordinates": [-10.1433537, 8.2223211]}}, {"type": "Feature", "properties": {"name": "Somalahun", "place": "hamlet", "osm_layer": "settlements"}, "geometry": {"type": "Point", "coordinates": [-10.0787689, 8.2343735]}}, {"type": "Feature", "properties": {"name": "Koibelee", "place": "hamlet", "osm_layer": "settlements"}, "geometry": {"type": "Point", "coordinates": [-9.920142, 8.3668766]}}, {"type": "Feature", "properties": {"name": "Siakbawa", "place": "hamlet", "osm_layer": "settlements"}, "geometry": {"type": "Point", "coordinates": [-10.1560895, 8.2498128]}}, {"type": "Feature", "properties": {"name": "Sosmoilahun Town (B)", "place": "hamlet", "osm_layer": "settlements"}, "geometry": {"type": "Point", "coordinates": [-10.1471115, 8.2619878]}}, {"type": "Feature", "properties": {"name": "Kahaya", "place": "hamlet", "osm_layer": "settlements"}, "geometry": {"type": "Point", "coordinates": [-10.0955166, 8.3661322]}}, {"type": "Feature", "properties": {"name": "Tamulehun", "place": "hamlet", "osm_layer": "settlements"}, "geometry": {"type": "Point", "coordinates": [-10.116478, 8.2469347]}}, {"type": "Feature", "properties": {"name": "Taninahun", "place": "hamlet", "osm_layer": "settlements"}, "geometry": {"type": "Point", "coordinates": [-10.0475, 8.36918]}}, {"type": "Feature", "properties": {"name": "Kortuhun (2)", "place": "hamlet", "osm_layer": "settlements"}, "geometry": {"type": "Point", "coordinates": [-10.13523, 8.29829]}}, {"type": "Feature", "properties": {"name": "Vezala", "place": "village", "osm_layer": "settlements"}, "geometry": {"type": "Point", "coordinates": [-9.9032421, 8.3695778]}}, {"type": "Feature", "properties": {"name": null, "place": "hamlet", "osm_layer": "settlements"}, "geometry": {"type": "Point", "coordinates": [-10.0709499, 8.1626666]}}, {"type": "Feature", "properties": {"name": "Kabbata", "place": "hamlet", "osm_layer": "settlements"}, "geometry": {"type": "Point", "coordinates": [-9.8519428, 8.3768072]}}, {"type": "Feature", "properties": {"name": "Selega", "place": "village", "osm_layer": "settlements"}, "geometry": {"type": "Point", "coordinates": [-9.7174211, 8.4090367]}}, {"type": "Feature", "properties": {"name": "Bahama", "place": "hamlet", "osm_layer": "settlements"}, "geometry": {"type": "Point", "coordinates": [-10.2968507, 8.3440204]}}, {"type": "Feature", "properties": {"name": "Bandiworo", "place": "hamlet", "osm_layer": "settlements"}, "geometry": {"type": "Point", "coordinates": [-10.3792189, 8.1669713]}}, {"type": "Feature", "properties": {"name": "Bayama", "place": "village", "osm_layer": "settlements"}, "geometry": {"type": "Point", "coordinates": [-10.20649, 8.34804]}}, {"type": "Feature", "properties": {"name": "Kpordu", "place": "hamlet", "osm_layer": "settlements"}, "geometry": {"type": "Point", "coordinates": [-10.22642, 8.25055]}}, {"type": "Feature", "properties": {"name": "Betesu", "place": "hamlet", "osm_layer": "settlements"}, "geometry": {"type": "Point", "coordinates": [-10.3877853, 8.1484256]}}, {"type": "Feature", "properties": {"name": "Boyama", "place": "hamlet", "osm_layer": "settlements"}, "geometry": {"type": "Point", "coordinates": [-10.3372108, 8.1982537]}}, {"type": "Feature", "properties": {"name": "Fakolahun", "place": "hamlet", "osm_layer": "settlements"}, "geometry": {"type": "Point", "coordinates": [-10.2368317, 8.1648072]}}, {"type": "Feature", "properties": {"name": "Fangamadu", "place": "hamlet", "osm_layer": "settlements"}, "geometry": {"type": "Point", "coordinates": [-10.3154703, 8.2503084]}}, {"type": "Feature", "properties": {"name": "Foyagalya", "place": "hamlet", "osm_layer": "settlements"}, "geometry": {"type": "Point", "coordinates": [-10.2919303, 8.2719036]}}, {"type": "Feature", "properties": {"name": "Yengama", "place": "village", "osm_layer": "settlements"}, "geometry": {"type": "Point", "coordinates": [-10.3081865, 8.170127]}}, {"type": "Feature", "properties": {"name": "Garama", "place": "hamlet", "osm_layer": "settlements"}, "geometry": {"type": "Point", "coordinates": [-10.3156812, 8.2503229]}}, {"type": "Feature", "properties": {"name": "Solapie", "place": "hamlet", "osm_layer": "settlements"}, "geometry": {"type": "Point", "coordinates": [-10.2254716, 8.3921254]}}, {"type": "Feature", "properties": {"name": "Gondama", "place": "hamlet", "osm_layer": "settlements"}, "geometry": {"type": "Point", "coordinates": [-10.44281, 8.07348]}}, {"type": "Feature", "properties": {"name": "Gorahun", "place": "village", "osm_layer": "settlements"}, "geometry": {"type": "Point", "coordinates": [-10.337776, 8.171273]}}, {"type": "Feature", "properties": {"name": "Kamatahun", "place": "village", "osm_layer": "settlements"}, "geometry": {"type": "Point", "coordinates": [-10.2943982, 8.138592]}}, {"type": "Feature", "properties": {"name": "Kornorsue Tengia", "place": "hamlet", "osm_layer": "settlements"}, "geometry": {"type": "Point", "coordinates": [-10.29135, 8.25676]}}, {"type": "Feature", "properties": {"name": "Kpongoma", "place": "hamlet", "osm_layer": "settlements"}, "geometry": {"type": "Point", "coordinates": [-10.25289, 8.24755]}}, {"type": "Feature", "properties": {"name": "Dawa", "place": "hamlet", "osm_layer": "settlements"}, "geometry": {"type": "Point", "coordinates": [-10.3170183, 8.2591147]}}, {"type": "Feature", "properties": {"name": "Lukasu", "place": "hamlet", "osm_layer": "settlements"}, "geometry": {"type": "Point", "coordinates": [-10.24433, 8.04993]}}, {"type": "Feature", "properties": {"name": "Manduvulahun", "place": "hamlet", "osm_layer": "settlements"}, "geometry": {"type": "Point", "coordinates": [-10.3162648, 8.2117406]}}, {"type": "Feature", "properties": {"name": "Memolahun", "place": "village", "osm_layer": "settlements"}, "geometry": {"type": "Point", "coordinates": [-10.46576, 8.06448]}}, {"type": "Feature", "properties": {"name": "Misadu", "place": "hamlet", "osm_layer": "settlements"}, "geometry": {"type": "Point", "coordinates": [-10.3076895, 8.2253247]}}, {"type": "Feature", "properties": {"name": "Nafudu", "place": "hamlet", "osm_layer": "settlements"}, "geometry": {"type": "Point", "coordinates": [-10.2997067, 8.3704769]}}, {"type": "Feature", "properties": {"name": "Periwahun", "place": "hamlet", "osm_layer": "settlements"}, "geometry": {"type": "Point", "coordinates": [-10.458819, 8.1601195]}}, {"type": "Feature", "properties": {"name": "Pewahun", "place": "hamlet", "osm_layer": "settlements"}, "geometry": {"type": "Point", "coordinates": [-10.32301, 8.1760246]}}, {"type": "Feature", "properties": {"name": "Sodu", "place": "hamlet", "osm_layer": "settlements"}, "geometry": {"type": "Point", "coordinates": [-10.2722443, 8.4054943]}}, {"type": "Feature", "properties": {"name": "Sadupampo", "place": "hamlet", "osm_layer": "settlements"}, "geometry": {"type": "Point", "coordinates": [-10.3054143, 8.3090193]}}, {"type": "Feature", "properties": {"name": "Suunga", "place": "hamlet", "osm_layer": "settlements"}, "geometry": {"type": "Point", "coordinates": [-10.3172325, 8.2223923]}}, {"type": "Feature", "properties": {"name": "Samoru", "place": "hamlet", "osm_layer": "settlements"}, "geometry": {"type": "Point", "coordinates": [-10.43199, 8.1601355]}}, {"type": "Feature", "properties": {"name": "Sanga", "place": "hamlet", "osm_layer": "settlements"}, "geometry": {"type": "Point", "coordinates": [-10.3124152, 8.2003543]}}, {"type": "Feature", "properties": {"name": "Sandia", "place": "hamlet", "osm_layer": "settlements"}, "geometry": {"type": "Point", "coordinates": [-10.23581, 8.26667]}}, {"type": "Feature", "properties": {"name": "Sayma", "place": "hamlet", "osm_layer": "settlements"}, "geometry": {"type": "Point", "coordinates": [-10.28382, 8.28665]}}, {"type": "Feature", "properties": {"name": "Senga", "place": "hamlet", "osm_layer": "settlements"}, "geometry": {"type": "Point", "coordinates": [-10.3203399, 8.2301578]}}, {"type": "Feature", "properties": {"name": "Sengar", "place": "hamlet", "osm_layer": "settlements"}, "geometry": {"type": "Point", "coordinates": [-10.2353021, 8.4050444]}}, {"type": "Feature", "properties": {"name": "Sadu Bendu", "place": "village", "osm_layer": "settlements"}, "geometry": {"type": "Point", "coordinates": [-10.28759, 8.30751]}}, {"type": "Feature", "properties": {"name": "Tindonin", "place": "hamlet", "osm_layer": "settlements"}, "geometry": {"type": "Point", "coordinates": [-10.2778054, 8.297514]}}, {"type": "Feature", "properties": {"name": "Kwendemba", "place": "village", "osm_layer": "settlements"}, "geometry": {"type": "Point", "coordinates": [-10.26624, 8.27925]}}, {"type": "Feature", "properties": {"name": "Worsongar", "place": "village", "osm_layer": "settlements"}, "geometry": {"type": "Point", "coordinates": [-10.28079, 8.36175]}}, {"type": "Feature", "properties": {"name": "Yallahun", "place": "village", "osm_layer": "settlements"}, "geometry": {"type": "Point", "coordinates": [-10.31255, 8.13044]}}, {"type": "Feature", "properties": {"name": "Yandohun", "place": "village", "osm_layer": "settlements"}, "geometry": {"type": "Point", "coordinates": [-10.3578735, 8.1054017]}}, {"type": "Feature", "properties": {"name": "Yassadu", "place": "hamlet", "osm_layer": "settlements"}, "geometry": {"type": "Point", "coordinates": [-10.23624, 8.27773]}}, {"type": "Feature", "properties": {"name": "Yendema", "place": "hamlet", "osm_layer": "settlements"}, "geometry": {"type": "Point", "coordinates": [-10.26037, 8.27332]}}, {"type": "Feature", "properties": {"name": "Gjenga", "place": "hamlet", "osm_layer": "settlements"}, "geometry": {"type": "Point", "coordinates": [-10.3300559, 8.1538892]}}, {"type": "Feature", "properties": {"name": "Bayama Komende", "place": "hamlet", "osm_layer": "settlements"}, "geometry": {"type": "Point", "coordinates": [-10.3303701, 8.2015654]}}, {"type": "Feature", "properties": {"name": null, "place": "hamlet", "osm_layer": "settlements"}, "geometry": {"type": "Point", "coordinates": [-10.2993078, 8.2086849]}}, {"type": "Feature", "properties": {"name": "Langbemba", "place": "hamlet", "osm_layer": "settlements"}, "geometry": {"type": "Point", "coordinates": [-10.2739714, 8.2149075]}}, {"type": "Feature", "properties": {"name": "Fornin", "place": "hamlet", "osm_layer": "settlements"}, "geometry": {"type": "Point", "coordinates": [-10.22407, 8.37735]}}, {"type": "Feature", "properties": {"name": "Nyandesu", "place": "hamlet", "osm_layer": "settlements"}, "geometry": {"type": "Point", "coordinates": [-10.2807248, 8.3896447]}}, {"type": "Feature", "properties": {"name": "Konja", "place": "hamlet", "osm_layer": "settlements"}, "geometry": {"type": "Point", "coordinates": [-10.286216, 8.4825678]}}, {"type": "Feature", "properties": {"name": "Yendema", "place": "hamlet", "osm_layer": "settlements"}, "geometry": {"type": "Point", "coordinates": [-10.0929212, 8.4335542]}}, {"type": "Feature", "properties": {"name": "Bakama Lela", "place": "hamlet", "osm_layer": "settlements"}, "geometry": {"type": "Point", "coordinates": [-9.913255, 8.544763]}}, {"type": "Feature", "properties": {"name": "Tarassou", "place": "hamlet", "osm_layer": "settlements"}, "geometry": {"type": "Point", "coordinates": [-9.9042151, 8.5260524]}}, {"type": "Feature", "properties": {"name": null, "place": "hamlet", "osm_layer": "settlements"}, "geometry": {"type": "Point", "coordinates": [-9.8759162, 8.5539535]}}, {"type": "Feature", "properties": {"name": "Bondi Darbu Town", "place": "hamlet", "osm_layer": "settlements"}, "geometry": {"type": "Point", "coordinates": [-9.9511083, 7.9966575]}}, {"type": "Feature", "properties": {"name": "Ngbopoey", "place": "hamlet", "osm_layer": "settlements"}, "geometry": {"type": "Point", "coordinates": [-10.2043664, 8.010918]}}, {"type": "Feature", "properties": {"name": "Walayhn", "place": "hamlet", "osm_layer": "settlements"}, "geometry": {"type": "Point", "coordinates": [-10.3286219, 8.0276858]}}, {"type": "Feature", "properties": {"name": "Bondowalahun Number One", "place": "hamlet", "osm_layer": "settlements"}, "geometry": {"type": "Point", "coordinates": [-10.2014423, 8.0938752]}}, {"type": "Feature", "properties": {"name": "Sakpawa - Wuam", "place": "hamlet", "osm_layer": "settlements"}, "geometry": {"type": "Point", "coordinates": [-10.1285013, 8.4152536]}}, {"type": "Feature", "properties": {"name": "Owet Kama", "place": "hamlet", "osm_layer": "settlements"}, "geometry": {"type": "Point", "coordinates": [-9.986057, 8.49657]}}, {"type": "Feature", "properties": {"name": "Zorzor", "place": "village", "osm_layer": "settlements"}, "geometry": {"type": "Point", "coordinates": [-9.428166, 7.7788]}}, {"type": "Feature", "properties": {"name": "Sehyikimpa", "place": "village", "osm_layer": "settlements"}, "geometry": {"type": "Point", "coordinates": [-8.6826566, 7.3744818]}}, {"type": "Feature", "properties": {"name": "Wonjoe", "place": "hamlet", "osm_layer": "settlements"}, "geometry": {"type": "Point", "coordinates": [-10.1198778, 8.4620832]}}, {"type": "Feature", "properties": {"name": "Nemia Kama", "place": "hamlet", "osm_layer": "settlements"}, "geometry": {"type": "Point", "coordinates": [-10.004814, 8.470513]}}, {"type": "Feature", "properties": {"name": "Taoulela", "place": "hamlet", "osm_layer": "settlements"}, "geometry": {"type": "Point", "coordinates": [-9.8866671, 8.4980899]}}, {"type": "Feature", "properties": {"name": "S\u00e9m\u00e9lazou", "place": "hamlet", "osm_layer": "settlements"}, "geometry": {"type": "Point", "coordinates": [-9.9613417, 8.5035511]}}, {"type": "Feature", "properties": {"name": "Gbadonin", "place": "hamlet", "osm_layer": "settlements"}, "geometry": {"type": "Point", "coordinates": [-9.973413, 8.521163]}}, {"type": "Feature", "properties": {"name": "Fol\u00e9ssoua", "place": "hamlet", "osm_layer": "settlements"}, "geometry": {"type": "Point", "coordinates": [-9.949412, 8.506442]}}, {"type": "Feature", "properties": {"name": "Bakama", "place": "hamlet", "osm_layer": "settlements"}, "geometry": {"type": "Point", "coordinates": [-9.9055684, 8.5394798]}}, {"type": "Feature", "properties": {"name": "Kpowansayea", "place": "hamlet", "osm_layer": "settlements"}, "geometry": {"type": "Point", "coordinates": [-9.62857, 7.4897]}}, {"type": "Feature", "properties": {"name": "Basanai", "place": "hamlet", "osm_layer": "settlements"}, "geometry": {"type": "Point", "coordinates": [-9.6221373, 7.4980759]}}, {"type": "Feature", "properties": {"name": "Ngeifassa", "place": "hamlet", "osm_layer": "settlements"}, "geometry": {"type": "Point", "coordinates": [-10.148152, 8.4255743]}}, {"type": "Feature", "properties": {"name": "Farcee", "place": "hamlet", "osm_layer": "settlements"}, "geometry": {"type": "Point", "coordinates": [-10.1770111, 8.4369532]}}, {"type": "Feature", "properties": {"name": "Diataoul\u00e9dou", "place": "hamlet", "osm_layer": "settlements"}, "geometry": {"type": "Point", "coordinates": [-9.6076408, 8.4087756]}}, {"type": "Feature", "properties": {"name": "Sengbedou", "place": "village", "osm_layer": "settlements"}, "geometry": {"type": "Point", "coordinates": [-9.6401658, 8.4065483]}}, {"type": "Feature", "properties": {"name": null, "place": "hamlet", "osm_layer": "settlements"}, "geometry": {"type": "Point", "coordinates": [-9.5968766, 8.4210634]}}, {"type": "Feature", "properties": {"name": "Galama", "place": "village", "osm_layer": "settlements"}, "geometry": {"type": "Point", "coordinates": [-9.7893975, 8.4624861]}}, {"type": "Feature", "properties": {"name": "Sangia Pumbor", "place": "hamlet", "osm_layer": "settlements"}, "geometry": {"type": "Point", "coordinates": [-10.1930157, 8.3011374]}}, {"type": "Feature", "properties": {"name": "Wankendu", "place": "hamlet", "osm_layer": "settlements"}, "geometry": {"type": "Point", "coordinates": [-9.654234, 8.315788]}}, {"type": "Feature", "properties": {"name": "Goyala Town Center", "place": "hamlet", "osm_layer": "settlements"}, "geometry": {"type": "Point", "coordinates": [-9.6206977, 8.2511003]}}, {"type": "Feature", "properties": {"name": "Betibah", "place": "hamlet", "osm_layer": "settlements"}, "geometry": {"type": "Point", "coordinates": [-9.83745, 8.24463]}}, {"type": "Feature", "properties": {"name": "David Selma's", "place": "village", "osm_layer": "settlements"}, "geometry": {"type": "Point", "coordinates": [-9.76186, 8.27353]}}, {"type": "Feature", "properties": {"name": "Kolliemai", "place": "village", "osm_layer": "settlements"}, "geometry": {"type": "Point", "coordinates": [-9.7624463, 8.2905983]}}, {"type": "Feature", "properties": {"name": "Seekemai", "place": "village", "osm_layer": "settlements"}, "geometry": {"type": "Point", "coordinates": [-9.7813588, 8.2462939]}}, {"type": "Feature", "properties": {"name": "Tenebu", "place": "village", "osm_layer": "settlements"}, "geometry": {"type": "Point", "coordinates": [-9.7717735, 8.3095064]}}, {"type": "Feature", "properties": {"name": "Mamikonnedu", "place": "village", "osm_layer": "settlements"}, "geometry": {"type": "Point", "coordinates": [-9.5941991, 8.3955189]}}, {"type": "Feature", "properties": {"name": "Nyamakamadu", "place": "village", "osm_layer": "settlements"}, "geometry": {"type": "Point", "coordinates": [-9.6387863, 8.3926057]}}, {"type": "Feature", "properties": {"name": "Wamanor", "place": "hamlet", "osm_layer": "settlements"}, "geometry": {"type": "Point", "coordinates": [-9.63976, 8.34515]}}, {"type": "Feature", "properties": {"name": "Honeyahun 2", "place": "hamlet", "osm_layer": "settlements"}, "geometry": {"type": "Point", "coordinates": [-10.0081843, 8.3635049]}}, {"type": "Feature", "properties": {"name": "Honeyahun 1", "place": "hamlet", "osm_layer": "settlements"}, "geometry": {"type": "Point", "coordinates": [-10.0008625, 8.3544942]}}, {"type": "Feature", "properties": {"name": "Johnny's", "place": "village", "osm_layer": "settlements"}, "geometry": {"type": "Point", "coordinates": [-9.9638213, 8.3612129]}}, {"type": "Feature", "properties": {"name": "Jomata", "place": "hamlet", "osm_layer": "settlements"}, "geometry": {"type": "Point", "coordinates": [-9.9503825, 8.3984654]}}, {"type": "Feature", "properties": {"name": "Kortulahun 1", "place": "village", "osm_layer": "settlements"}, "geometry": {"type": "Point", "coordinates": [-9.993557, 8.3876863]}}, {"type": "Feature", "properties": {"name": "Yokollie", "place": "hamlet", "osm_layer": "settlements"}, "geometry": {"type": "Point", "coordinates": [-9.9391705, 8.3599077]}}, {"type": "Feature", "properties": {"name": "Zawordamai", "place": "village", "osm_layer": "settlements"}, "geometry": {"type": "Point", "coordinates": [-9.9522493, 8.3286369]}}, {"type": "Feature", "properties": {"name": "Mbalatahun", "place": "village", "osm_layer": "settlements"}, "geometry": {"type": "Point", "coordinates": [-10.1538863, 8.2212861]}}, {"type": "Feature", "properties": {"name": "Boawohun", "place": "hamlet", "osm_layer": "settlements"}, "geometry": {"type": "Point", "coordinates": [-10.14455, 8.17053]}}, {"type": "Feature", "properties": {"name": "Boawolohun", "place": "hamlet", "osm_layer": "settlements"}, "geometry": {"type": "Point", "coordinates": [-10.1192545, 8.2063958]}}, {"type": "Feature", "properties": {"name": "Bolahun Town", "place": "village", "osm_layer": "settlements"}, "geometry": {"type": "Point", "coordinates": [-10.16053, 8.23171]}}, {"type": "Feature", "properties": {"name": "Fangonda Town", "place": "village", "osm_layer": "settlements"}, "geometry": {"type": "Point", "coordinates": [-10.17346, 8.22079]}}, {"type": "Feature", "properties": {"name": "Kpengbelahun", "place": "hamlet", "osm_layer": "settlements"}, "geometry": {"type": "Point", "coordinates": [-10.176131, 8.1489364]}}, {"type": "Feature", "properties": {"name": "Lehuma Town", "place": "hamlet", "osm_layer": "settlements"}, "geometry": {"type": "Point", "coordinates": [-10.17224, 8.17417]}}, {"type": "Feature", "properties": {"name": "Masambolahun", "place": "village", "osm_layer": "settlements"}, "geometry": {"type": "Point", "coordinates": [-10.17303, 8.22728]}}, {"type": "Feature", "properties": {"name": "Porlowu Town", "place": "village", "osm_layer": "settlements"}, "geometry": {"type": "Point", "coordinates": [-10.1916422, 8.2171277]}}, {"type": "Feature", "properties": {"name": "Voko", "place": "hamlet", "osm_layer": "settlements"}, "geometry": {"type": "Point", "coordinates": [-10.8590948, 6.8305389]}}, {"type": "Feature", "properties": {"name": "Danin\u00e9", "place": "village", "osm_layer": "settlements"}, "geometry": {"type": "Point", "coordinates": [-9.1560477, 7.2952028]}}, {"type": "Feature", "properties": {"name": "Bedu", "place": "hamlet", "osm_layer": "settlements"}, "geometry": {"type": "Point", "coordinates": [-10.0821802, 8.4780649]}}, {"type": "Feature", "properties": {"name": "Balladou Kondallo", "place": "hamlet", "osm_layer": "settlements"}, "geometry": {"type": "Point", "coordinates": [-10.059614, 8.527446]}}, {"type": "Feature", "properties": {"name": "Bandeinin kama", "place": "hamlet", "osm_layer": "settlements"}, "geometry": {"type": "Point", "coordinates": [-9.987385, 8.5095864]}}, {"type": "Feature", "properties": {"name": "Bawa P\u00f6mb\u00f6", "place": "hamlet", "osm_layer": "settlements"}, "geometry": {"type": "Point", "coordinates": [-10.1716986, 8.5188002]}}, {"type": "Feature", "properties": {"name": "Bouli\u00e8dou", "place": "hamlet", "osm_layer": "settlements"}, "geometry": {"type": "Point", "coordinates": [-9.999714, 8.537008]}}, {"type": "Feature", "properties": {"name": "Bowallo", "place": "hamlet", "osm_layer": "settlements"}, "geometry": {"type": "Point", "coordinates": [-10.013119, 8.495677]}}, {"type": "Feature", "properties": {"name": "Douadou Ba", "place": "hamlet", "osm_layer": "settlements"}, "geometry": {"type": "Point", "coordinates": [-10.025079, 8.512148]}}, {"type": "Feature", "properties": {"name": "D\u00f6l\u00f6", "place": "hamlet", "osm_layer": "settlements"}, "geometry": {"type": "Point", "coordinates": [-10.0422531, 8.4628854]}}, {"type": "Feature", "properties": {"name": "Fefedou", "place": "hamlet", "osm_layer": "settlements"}, "geometry": {"type": "Point", "coordinates": [-10.1965615, 8.4995484]}}, {"type": "Feature", "properties": {"name": "Foyon", "place": "hamlet", "osm_layer": "settlements"}, "geometry": {"type": "Point", "coordinates": [-10.003604, 8.45847]}}, {"type": "Feature", "properties": {"name": "Gbadonin Kama", "place": "hamlet", "osm_layer": "settlements"}, "geometry": {"type": "Point", "coordinates": [-10.041125, 8.447559]}}, {"type": "Feature", "properties": {"name": "Gballo B\u00e8ngou", "place": "hamlet", "osm_layer": "settlements"}, "geometry": {"type": "Point", "coordinates": [-10.088178, 8.521638]}}, {"type": "Feature", "properties": {"name": "Gnabolo", "place": "hamlet", "osm_layer": "settlements"}, "geometry": {"type": "Point", "coordinates": [-10.051692, 8.433058]}}, {"type": "Feature", "properties": {"name": "Gnamadou", "place": "hamlet", "osm_layer": "settlements"}, "geometry": {"type": "Point", "coordinates": [-10.02874, 8.527818]}}, {"type": "Feature", "properties": {"name": "Guiz\u00e9zou", "place": "hamlet", "osm_layer": "settlements"}, "geometry": {"type": "Point", "coordinates": [-9.925982, 8.516045]}}, {"type": "Feature", "properties": {"name": "Kagbadou", "place": "hamlet", "osm_layer": "settlements"}, "geometry": {"type": "Point", "coordinates": [-10.1621301, 8.5304619]}}, {"type": "Feature", "properties": {"name": "Kolle Kama", "place": "hamlet", "osm_layer": "settlements"}, "geometry": {"type": "Point", "coordinates": [-9.9948371, 8.501457]}}, {"type": "Feature", "properties": {"name": "Kondallo Simbian", "place": "hamlet", "osm_layer": "settlements"}, "geometry": {"type": "Point", "coordinates": [-10.061762, 8.526096]}}, {"type": "Feature", "properties": {"name": "Koudou", "place": "hamlet", "osm_layer": "settlements"}, "geometry": {"type": "Point", "coordinates": [-10.018462, 8.52787]}}, {"type": "Feature", "properties": {"name": "Koueldou", "place": "hamlet", "osm_layer": "settlements"}, "geometry": {"type": "Point", "coordinates": [-10.041497, 8.520539]}}, {"type": "Feature", "properties": {"name": "Kouessoua", "place": "hamlet", "osm_layer": "settlements"}, "geometry": {"type": "Point", "coordinates": [-10.01184, 8.482751]}}, {"type": "Feature", "properties": {"name": "Koumabengou", "place": "hamlet", "osm_layer": "settlements"}, "geometry": {"type": "Point", "coordinates": [-10.033757, 8.514891]}}, {"type": "Feature", "properties": {"name": "Koumassan", "place": "hamlet", "osm_layer": "settlements"}, "geometry": {"type": "Point", "coordinates": [-10.056116, 8.53158]}}, {"type": "Feature", "properties": {"name": "K\u00e9ndou", "place": "hamlet", "osm_layer": "settlements"}, "geometry": {"type": "Point", "coordinates": [-10.057222, 8.518511]}}, {"type": "Feature", "properties": {"name": "K\u00f6n\u00f6ssou", "place": "hamlet", "osm_layer": "settlements"}, "geometry": {"type": "Point", "coordinates": [-10.041852, 8.50675]}}, {"type": "Feature", "properties": {"name": "L\u00e9pallalo Bawa", "place": "hamlet", "osm_layer": "settlements"}, "geometry": {"type": "Point", "coordinates": [-10.0198649, 8.4972458]}}, {"type": "Feature", "properties": {"name": "Makka", "place": "hamlet", "osm_layer": "settlements"}, "geometry": {"type": "Point", "coordinates": [-10.035324, 8.538495]}}, {"type": "Feature", "properties": {"name": "N'Wokouma Kama", "place": "hamlet", "osm_layer": "settlements"}, "geometry": {"type": "Point", "coordinates": [-10.035851, 8.468515]}}, {"type": "Feature", "properties": {"name": "N'd\u00e9gnamaro", "place": "hamlet", "osm_layer": "settlements"}, "geometry": {"type": "Point", "coordinates": [-10.043389, 8.533818]}}, {"type": "Feature", "properties": {"name": "NYeifassa", "place": "hamlet", "osm_layer": "settlements"}, "geometry": {"type": "Point", "coordinates": [-10.025522, 8.455068]}}, {"type": "Feature", "properties": {"name": "N\u00e8ngb\u00e8da", "place": "hamlet", "osm_layer": "settlements"}, "geometry": {"type": "Point", "coordinates": [-10.066174, 8.51851]}}, {"type": "Feature", "properties": {"name": "S\u00f6l\u00f6mba", "place": "hamlet", "osm_layer": "settlements"}, "geometry": {"type": "Point", "coordinates": [-10.008381, 8.499243]}}, {"type": "Feature", "properties": {"name": "Yaradou Kama", "place": "hamlet", "osm_layer": "settlements"}, "geometry": {"type": "Point", "coordinates": [-10.0300873, 8.4707003]}}, {"type": "Feature", "properties": {"name": "Yaradou Yanya", "place": "hamlet", "osm_layer": "settlements"}, "geometry": {"type": "Point", "coordinates": [-10.1637776, 8.5196051]}}, {"type": "Feature", "properties": {"name": "Balladou Kondallo", "place": "hamlet", "osm_layer": "settlements"}, "geometry": {"type": "Point", "coordinates": [-10.059614, 8.527446]}}, {"type": "Feature", "properties": {"name": "Boukoussou T", "place": "hamlet", "osm_layer": "settlements"}, "geometry": {"type": "Point", "coordinates": [-9.9412665, 8.5202096]}}, {"type": "Feature", "properties": {"name": "Bowallo", "place": "hamlet", "osm_layer": "settlements"}, "geometry": {"type": "Point", "coordinates": [-10.013119, 8.495677]}}, {"type": "Feature", "properties": {"name": "Douadou Ba", "place": "hamlet", "osm_layer": "settlements"}, "geometry": {"type": "Point", "coordinates": [-10.025079, 8.512148]}}, {"type": "Feature", "properties": {"name": "Fandou-yema", "place": "hamlet", "osm_layer": "settlements"}, "geometry": {"type": "Point", "coordinates": [-10.176361, 8.5262867]}}, {"type": "Feature", "properties": {"name": "Fefedou", "place": "hamlet", "osm_layer": "settlements"}, "geometry": {"type": "Point", "coordinates": [-10.196215, 8.500292]}}, {"type": "Feature", "properties": {"name": "Foreya", "place": "hamlet", "osm_layer": "settlements"}, "geometry": {"type": "Point", "coordinates": [-9.8921179, 8.522847]}}, {"type": "Feature", "properties": {"name": "Foyon", "place": "hamlet", "osm_layer": "settlements"}, "geometry": {"type": "Point", "coordinates": [-10.003604, 8.45847]}}, {"type": "Feature", "properties": {"name": "Gbadonin Kama", "place": "hamlet", "osm_layer": "settlements"}, "geometry": {"type": "Point", "coordinates": [-10.041125, 8.447559]}}, {"type": "Feature", "properties": {"name": "Gballo B\u00e8ngou", "place": "hamlet", "osm_layer": "settlements"}, "geometry": {"type": "Point", "coordinates": [-10.088178, 8.521638]}}, {"type": "Feature", "properties": {"name": "Gbam\u00e8i", "place": "hamlet", "osm_layer": "settlements"}, "geometry": {"type": "Point", "coordinates": [-9.9634733, 8.528876]}}, {"type": "Feature", "properties": {"name": "Gbelwa", "place": "hamlet", "osm_layer": "settlements"}, "geometry": {"type": "Point", "coordinates": [-9.9981425, 8.5435295]}}, {"type": "Feature", "properties": {"name": "Gnabolo", "place": "hamlet", "osm_layer": "settlements"}, "geometry": {"type": "Point", "coordinates": [-10.051692, 8.433058]}}, {"type": "Feature", "properties": {"name": "Gnamadou", "place": "hamlet", "osm_layer": "settlements"}, "geometry": {"type": "Point", "coordinates": [-10.02874, 8.527818]}}, {"type": "Feature", "properties": {"name": "Guiz\u00e9zou", "place": "hamlet", "osm_layer": "settlements"}, "geometry": {"type": "Point", "coordinates": [-9.925982, 8.516045]}}, {"type": "Feature", "properties": {"name": "Ki\u00e9ss\u00e8n\u00e8ye", "place": "hamlet", "osm_layer": "settlements"}, "geometry": {"type": "Point", "coordinates": [-10.041367, 8.4691167]}}, {"type": "Feature", "properties": {"name": "Kondallo Simbian", "place": "hamlet", "osm_layer": "settlements"}, "geometry": {"type": "Point", "coordinates": [-10.061762, 8.526096]}}, {"type": "Feature", "properties": {"name": "Koudou", "place": "hamlet", "osm_layer": "settlements"}, "geometry": {"type": "Point", "coordinates": [-10.018462, 8.52787]}}, {"type": "Feature", "properties": {"name": "Koueldou", "place": "hamlet", "osm_layer": "settlements"}, "geometry": {"type": "Point", "coordinates": [-10.041497, 8.520539]}}, {"type": "Feature", "properties": {"name": "Kouessoua", "place": "hamlet", "osm_layer": "settlements"}, "geometry": {"type": "Point", "coordinates": [-10.01184, 8.482751]}}, {"type": "Feature", "properties": {"name": "Koumabengou", "place": "hamlet", "osm_layer": "settlements"}, "geometry": {"type": "Point", "coordinates": [-10.033757, 8.514891]}}, {"type": "Feature", "properties": {"name": "Koumassan", "place": "hamlet", "osm_layer": "settlements"}, "geometry": {"type": "Point", "coordinates": [-10.056116, 8.53158]}}, {"type": "Feature", "properties": {"name": "K\u00e9ndou", "place": "hamlet", "osm_layer": "settlements"}, "geometry": {"type": "Point", "coordinates": [-10.057222, 8.518511]}}, {"type": "Feature", "properties": {"name": "K\u00f6n\u00f6ssou", "place": "hamlet", "osm_layer": "settlements"}, "geometry": {"type": "Point", "coordinates": [-10.041852, 8.50675]}}, {"type": "Feature", "properties": {"name": "Makka", "place": "hamlet", "osm_layer": "settlements"}, "geometry": {"type": "Point", "coordinates": [-10.035324, 8.538495]}}, {"type": "Feature", "properties": {"name": "Malekoma", "place": "hamlet", "osm_layer": "settlements"}, "geometry": {"type": "Point", "coordinates": [-9.8920829, 8.5346854]}}, {"type": "Feature", "properties": {"name": "N'Wokouma Kama", "place": "hamlet", "osm_layer": "settlements"}, "geometry": {"type": "Point", "coordinates": [-10.035851, 8.468515]}}, {"type": "Feature", "properties": {"name": "N'd\u00e9gnamaro", "place": "hamlet", "osm_layer": "settlements"}, "geometry": {"type": "Point", "coordinates": [-10.043391, 8.533818]}}, {"type": "Feature", "properties": {"name": "NDendessou", "place": "hamlet", "osm_layer": "settlements"}, "geometry": {"type": "Point", "coordinates": [-9.9659778, 8.5463484]}}, {"type": "Feature", "properties": {"name": "NGaou", "place": "hamlet", "osm_layer": "settlements"}, "geometry": {"type": "Point", "coordinates": [-10.0264845, 8.4832667]}}, {"type": "Feature", "properties": {"name": "NYeifassa", "place": "hamlet", "osm_layer": "settlements"}, "geometry": {"type": "Point", "coordinates": [-10.0257781, 8.4552159]}}, {"type": "Feature", "properties": {"name": "N\u00e8ngb\u00e8da", "place": "hamlet", "osm_layer": "settlements"}, "geometry": {"type": "Point", "coordinates": [-10.066174, 8.51851]}}, {"type": "Feature", "properties": {"name": "Sossomei", "place": "hamlet", "osm_layer": "settlements"}, "geometry": {"type": "Point", "coordinates": [-10.0116142, 8.4559766]}}, {"type": "Feature", "properties": {"name": "S\u00f6l\u00f6mba", "place": "hamlet", "osm_layer": "settlements"}, "geometry": {"type": "Point", "coordinates": [-10.008381, 8.499243]}}, {"type": "Feature", "properties": {"name": "Tombodou", "place": "hamlet", "osm_layer": "settlements"}, "geometry": {"type": "Point", "coordinates": [-10.2074635, 8.4899078]}}, {"type": "Feature", "properties": {"name": "Yaadou", "place": "hamlet", "osm_layer": "settlements"}, "geometry": {"type": "Point", "coordinates": [-10.1963592, 8.5118129]}}, {"type": "Feature", "properties": {"name": "N'Yabema Centre", "place": "hamlet", "osm_layer": "settlements"}, "geometry": {"type": "Point", "coordinates": [-9.9815232, 8.5289405]}}, {"type": "Feature", "properties": {"name": "Naama", "place": "village", "osm_layer": "settlements"}, "geometry": {"type": "Point", "coordinates": [-9.3524882, 7.258913]}}, {"type": "Feature", "properties": {"name": "Salia", "place": "village", "osm_layer": "settlements"}, "geometry": {"type": "Point", "coordinates": [-10.8900449, 6.5085077]}}, {"type": "Feature", "properties": {"name": "Small Lekpeh", "place": "hamlet", "osm_layer": "settlements"}, "geometry": {"type": "Point", "coordinates": [-10.96331, 6.61556]}}, {"type": "Feature", "properties": {"name": "Kpolo", "place": "hamlet", "osm_layer": "settlements"}, "geometry": {"type": "Point", "coordinates": [-10.95556, 6.61636]}}, {"type": "Feature", "properties": {"name": "Robertsport", "place": "town", "osm_layer": "settlements"}, "geometry": {"type": "Point", "coordinates": [-11.3669534, 6.7525707]}}, {"type": "Feature", "properties": {"name": "Koina du Tengia", "place": "hamlet", "osm_layer": "settlements"}, "geometry": {"type": "Point", "coordinates": [-10.30247, 8.2506]}}, {"type": "Feature", "properties": {"name": "Taylalor", "place": "village", "osm_layer": "settlements"}, "geometry": {"type": "Point", "coordinates": [-11.4586428, 6.897451]}}, {"type": "Feature", "properties": {"name": "Malema", "place": "hamlet", "osm_layer": "settlements"}, "geometry": {"type": "Point", "coordinates": [-10.61548, 7.9875551]}}, {"type": "Feature", "properties": {"name": "Gondama", "place": "hamlet", "osm_layer": "settlements"}, "geometry": {"type": "Point", "coordinates": [-10.6027022, 8.045019]}}, {"type": "Feature", "properties": {"name": "Sembehun", "place": "hamlet", "osm_layer": "settlements"}, "geometry": {"type": "Point", "coordinates": [-10.5706456, 8.0675812]}}, {"type": "Feature", "properties": {"name": "Sengema", "place": "hamlet", "osm_layer": "settlements"}, "geometry": {"type": "Point", "coordinates": [-10.579188, 8.0532222]}}, {"type": "Feature", "properties": {"name": "Griema", "place": "hamlet", "osm_layer": "settlements"}, "geometry": {"type": "Point", "coordinates": [-10.6134035, 7.9736435]}}, {"type": "Feature", "properties": {"name": "Senga", "place": "hamlet", "osm_layer": "settlements"}, "geometry": {"type": "Point", "coordinates": [-10.6269593, 7.9376347]}}, {"type": "Feature", "properties": {"name": "Batwoma", "place": "hamlet", "osm_layer": "settlements"}, "geometry": {"type": "Point", "coordinates": [-10.5400868, 8.1127321]}}, {"type": "Feature", "properties": {"name": "Baama", "place": "hamlet", "osm_layer": "settlements"}, "geometry": {"type": "Point", "coordinates": [-10.3466487, 8.1878295]}}, {"type": "Feature", "properties": {"name": "Betesu", "place": "hamlet", "osm_layer": "settlements"}, "geometry": {"type": "Point", "coordinates": [-10.3878035, 8.1480768]}}, {"type": "Feature", "properties": {"name": "Mano", "place": "hamlet", "osm_layer": "settlements"}, "geometry": {"type": "Point", "coordinates": [-10.3562927, 8.1704412]}}, {"type": "Feature", "properties": {"name": "Boyah-I", "place": "hamlet", "osm_layer": "settlements"}, "geometry": {"type": "Point", "coordinates": [-10.31067, 8.27185]}}, {"type": "Feature", "properties": {"name": "Baladu", "place": "hamlet", "osm_layer": "settlements"}, "geometry": {"type": "Point", "coordinates": [-10.3076454, 8.2981711]}}, {"type": "Feature", "properties": {"name": "Lepallu", "place": "hamlet", "osm_layer": "settlements"}, "geometry": {"type": "Point", "coordinates": [-10.3227826, 8.2720775]}}, {"type": "Feature", "properties": {"name": "Sandokoro", "place": "hamlet", "osm_layer": "settlements"}, "geometry": {"type": "Point", "coordinates": [-10.320617, 8.3131254]}}, {"type": "Feature", "properties": {"name": "Saama", "place": "hamlet", "osm_layer": "settlements"}, "geometry": {"type": "Point", "coordinates": [-10.287234, 8.4064432]}}, {"type": "Feature", "properties": {"name": "Kamapodu", "place": "hamlet", "osm_layer": "settlements"}, "geometry": {"type": "Point", "coordinates": [-10.2810441, 8.4210609]}}, {"type": "Feature", "properties": {"name": "Kondoma", "place": "hamlet", "osm_layer": "settlements"}, "geometry": {"type": "Point", "coordinates": [-10.2797753, 8.4456547]}}, {"type": "Feature", "properties": {"name": "Ndehuma", "place": "hamlet", "osm_layer": "settlements"}, "geometry": {"type": "Point", "coordinates": [-10.2580248, 8.4842254]}}, {"type": "Feature", "properties": {"name": "Kodu", "place": "hamlet", "osm_layer": "settlements"}, "geometry": {"type": "Point", "coordinates": [-10.2726858, 8.4785241]}}, {"type": "Feature", "properties": {"name": "Kpandu", "place": "hamlet", "osm_layer": "settlements"}, "geometry": {"type": "Point", "coordinates": [-10.2211844, 8.4684531]}}, {"type": "Feature", "properties": {"name": "Lepaloe", "place": "hamlet", "osm_layer": "settlements"}, "geometry": {"type": "Point", "coordinates": [-10.2430856, 8.4369763]}}, {"type": "Feature", "properties": {"name": "Ma", "place": "hamlet", "osm_layer": "settlements"}, "geometry": {"type": "Point", "coordinates": [-10.1480711, 8.5214019]}}, {"type": "Feature", "properties": {"name": "Worquoima", "place": "hamlet", "osm_layer": "settlements"}, "geometry": {"type": "Point", "coordinates": [-10.2050008, 8.4761997]}}, {"type": "Feature", "properties": {"name": "Ndehuma", "place": "hamlet", "osm_layer": "settlements"}, "geometry": {"type": "Point", "coordinates": [-10.26436, 8.36489]}}, {"type": "Feature", "properties": {"name": "Ngeinga", "place": "hamlet", "osm_layer": "settlements"}, "geometry": {"type": "Point", "coordinates": [-10.2824112, 8.3754599]}}, {"type": "Feature", "properties": {"name": "Weama", "place": "hamlet", "osm_layer": "settlements"}, "geometry": {"type": "Point", "coordinates": [-10.25952, 8.38118]}}, {"type": "Feature", "properties": {"name": "Konkpama", "place": "hamlet", "osm_layer": "settlements"}, "geometry": {"type": "Point", "coordinates": [-10.2858519, 8.3301563]}}, {"type": "Feature", "properties": {"name": "Norgorchoe Tengia", "place": "hamlet", "osm_layer": "settlements"}, "geometry": {"type": "Point", "coordinates": [-10.2414341, 8.3410783]}}, {"type": "Feature", "properties": {"name": "Fassema", "place": "hamlet", "osm_layer": "settlements"}, "geometry": {"type": "Point", "coordinates": [-10.290236, 8.2817798]}}, {"type": "Feature", "properties": {"name": "Keya-Pumbor", "place": "hamlet", "osm_layer": "settlements"}, "geometry": {"type": "Point", "coordinates": [-10.23958, 8.3087]}}, {"type": "Feature", "properties": {"name": "Tormandu", "place": "hamlet", "osm_layer": "settlements"}, "geometry": {"type": "Point", "coordinates": [-10.2014103, 8.4535646]}}, {"type": "Feature", "properties": {"name": "Baah", "place": "hamlet", "osm_layer": "settlements"}, "geometry": {"type": "Point", "coordinates": [-10.1630207, 8.4842313]}}, {"type": "Feature", "properties": {"name": "Borliloe", "place": "hamlet", "osm_layer": "settlements"}, "geometry": {"type": "Point", "coordinates": [-10.1662373, 8.4590747]}}, {"type": "Feature", "properties": {"name": "Mamah", "place": "hamlet", "osm_layer": "settlements"}, "geometry": {"type": "Point", "coordinates": [-10.169214, 8.4838205]}}, {"type": "Feature", "properties": {"name": "Yalladu Bonga", "place": "hamlet", "osm_layer": "settlements"}, "geometry": {"type": "Point", "coordinates": [-10.1749406, 8.4517606]}}, {"type": "Feature", "properties": {"name": "Fulawahun", "place": "hamlet", "osm_layer": "settlements"}, "geometry": {"type": "Point", "coordinates": [-10.5566372, 8.0735565]}}, {"type": "Feature", "properties": {"name": "Kambo", "place": "hamlet", "osm_layer": "settlements"}, "geometry": {"type": "Point", "coordinates": [-10.2062704, 8.410783]}}, {"type": "Feature", "properties": {"name": "Kolochoe", "place": "hamlet", "osm_layer": "settlements"}, "geometry": {"type": "Point", "coordinates": [-10.1534969, 8.438346]}}, {"type": "Feature", "properties": {"name": "Mendegesua", "place": "hamlet", "osm_layer": "settlements"}, "geometry": {"type": "Point", "coordinates": [-10.225264, 8.4072842]}}, {"type": "Feature", "properties": {"name": "Nwor", "place": "hamlet", "osm_layer": "settlements"}, "geometry": {"type": "Point", "coordinates": [-10.2189023, 8.4451859]}}, {"type": "Feature", "properties": {"name": "Njaluahun", "place": "hamlet", "osm_layer": "settlements"}, "geometry": {"type": "Point", "coordinates": [-10.54997, 8.05608]}}, {"type": "Feature", "properties": {"name": "Jomata", "place": "village", "osm_layer": "settlements"}, "geometry": {"type": "Point", "coordinates": [-10.1463059, 8.4126271]}}, {"type": "Feature", "properties": {"name": "Mawoe", "place": "hamlet", "osm_layer": "settlements"}, "geometry": {"type": "Point", "coordinates": [-10.1516837, 8.4095732]}}, {"type": "Feature", "properties": {"name": "Ngesu - Lor", "place": "hamlet", "osm_layer": "settlements"}, "geometry": {"type": "Point", "coordinates": [-10.102216, 8.4246871]}}, {"type": "Feature", "properties": {"name": "Folima", "place": "hamlet", "osm_layer": "settlements"}, "geometry": {"type": "Point", "coordinates": [-10.57098, 8.02405]}}, {"type": "Feature", "properties": {"name": "Yengbemei", "place": "hamlet", "osm_layer": "settlements"}, "geometry": {"type": "Point", "coordinates": [-10.0656084, 8.4336561]}}, {"type": "Feature", "properties": {"name": "Massabagai - II", "place": "hamlet", "osm_layer": "settlements"}, "geometry": {"type": "Point", "coordinates": [-10.0665139, 8.4471588]}}, {"type": "Feature", "properties": {"name": "Gbonebu", "place": "hamlet", "osm_layer": "settlements"}, "geometry": {"type": "Point", "coordinates": [-10.55005, 8.03716]}}, {"type": "Feature", "properties": {"name": "Tarma", "place": "village", "osm_layer": "settlements"}, "geometry": {"type": "Point", "coordinates": [-10.0973515, 8.470921]}}, {"type": "Feature", "properties": {"name": "Gbongbodu", "place": "hamlet", "osm_layer": "settlements"}, "geometry": {"type": "Point", "coordinates": [-10.0862104, 8.5115408]}}, {"type": "Feature", "properties": {"name": "Wodu", "place": "hamlet", "osm_layer": "settlements"}, "geometry": {"type": "Point", "coordinates": [-10.1340796, 8.5156344]}}, {"type": "Feature", "properties": {"name": "Shelloe", "place": "village", "osm_layer": "settlements"}, "geometry": {"type": "Point", "coordinates": [-10.2011061, 8.3850096]}}, {"type": "Feature", "properties": {"name": "Bassor", "place": "hamlet", "osm_layer": "settlements"}, "geometry": {"type": "Point", "coordinates": [-10.16984, 8.33759]}}, {"type": "Feature", "properties": {"name": "Foya Dundu", "place": "village", "osm_layer": "settlements"}, "geometry": {"type": "Point", "coordinates": [-10.20933, 8.32401]}}, {"type": "Feature", "properties": {"name": "Koblima", "place": "hamlet", "osm_layer": "settlements"}, "geometry": {"type": "Point", "coordinates": [-10.1626, 8.39075]}}, {"type": "Feature", "properties": {"name": "Kpormbu", "place": "hamlet", "osm_layer": "settlements"}, "geometry": {"type": "Point", "coordinates": [-10.19751, 8.33632]}}, {"type": "Feature", "properties": {"name": "Ndendesue", "place": "hamlet", "osm_layer": "settlements"}, "geometry": {"type": "Point", "coordinates": [-10.18446, 8.36766]}}, {"type": "Feature", "properties": {"name": "Somblo", "place": "hamlet", "osm_layer": "settlements"}, "geometry": {"type": "Point", "coordinates": [-10.18529, 8.3493]}}, {"type": "Feature", "properties": {"name": "Bolahun", "place": "hamlet", "osm_layer": "settlements"}, "geometry": {"type": "Point", "coordinates": [-10.11937, 8.37555]}}, {"type": "Feature", "properties": {"name": "Dowdow", "place": "hamlet", "osm_layer": "settlements"}, "geometry": {"type": "Point", "coordinates": [-10.13146, 8.37845]}}, {"type": "Feature", "properties": {"name": "Kamatahun", "place": "village", "osm_layer": "settlements"}, "geometry": {"type": "Point", "coordinates": [-10.1420655, 8.3524729]}}, {"type": "Feature", "properties": {"name": "Kpandehewa", "place": "hamlet", "osm_layer": "settlements"}, "geometry": {"type": "Point", "coordinates": [-10.1086496, 8.3635641]}}, {"type": "Feature", "properties": {"name": "Manhotahun", "place": "hamlet", "osm_layer": "settlements"}, "geometry": {"type": "Point", "coordinates": [-10.1173822, 8.3637756]}}, {"type": "Feature", "properties": {"name": "Savalahun", "place": "village", "osm_layer": "settlements"}, "geometry": {"type": "Point", "coordinates": [-10.14854, 8.33395]}}, {"type": "Feature", "properties": {"name": "Wombohawai", "place": "hamlet", "osm_layer": "settlements"}, "geometry": {"type": "Point", "coordinates": [-10.12864, 8.35619]}}, {"type": "Feature", "properties": {"name": "Mbakanda", "place": "hamlet", "osm_layer": "settlements"}, "geometry": {"type": "Point", "coordinates": [-10.07547, 8.36799]}}, {"type": "Feature", "properties": {"name": "Kapie", "place": "hamlet", "osm_layer": "settlements"}, "geometry": {"type": "Point", "coordinates": [-10.18773, 8.31384]}}, {"type": "Feature", "properties": {"name": "Kortuhun (1)", "place": "hamlet", "osm_layer": "settlements"}, "geometry": {"type": "Point", "coordinates": [-10.1405939, 8.3014475]}}, {"type": "Feature", "properties": {"name": "Korworhun", "place": "hamlet", "osm_layer": "settlements"}, "geometry": {"type": "Point", "coordinates": [-10.1512641, 8.316726]}}, {"type": "Feature", "properties": {"name": "Ngokorhun", "place": "hamlet", "osm_layer": "settlements"}, "geometry": {"type": "Point", "coordinates": [-10.09915, 8.35419]}}, {"type": "Feature", "properties": {"name": "Wohomba (1)", "place": "hamlet", "osm_layer": "settlements"}, "geometry": {"type": "Point", "coordinates": [-10.1350718, 8.3106723]}}, {"type": "Feature", "properties": {"name": "Wanwoclohun", "place": "hamlet", "osm_layer": "settlements"}, "geometry": {"type": "Point", "coordinates": [-10.1249641, 8.3033335]}}, {"type": "Feature", "properties": {"name": "Kololahun", "place": "hamlet", "osm_layer": "settlements"}, "geometry": {"type": "Point", "coordinates": [-10.10712, 8.26018]}}, {"type": "Feature", "properties": {"name": "Balahun (1)", "place": "hamlet", "osm_layer": "settlements"}, "geometry": {"type": "Point", "coordinates": [-10.0595, 8.32945]}}, {"type": "Feature", "properties": {"name": "Kambolahun", "place": "hamlet", "osm_layer": "settlements"}, "geometry": {"type": "Point", "coordinates": [-10.0577353, 8.3438212]}}, {"type": "Feature", "properties": {"name": "Kpaku's", "place": "hamlet", "osm_layer": "settlements"}, "geometry": {"type": "Point", "coordinates": [-9.9342283, 8.365229]}}, {"type": "Feature", "properties": {"name": "Vavamai", "place": "hamlet", "osm_layer": "settlements"}, "geometry": {"type": "Point", "coordinates": [-9.877412, 8.3757815]}}, {"type": "Feature", "properties": {"name": "Bondolahun", "place": "hamlet", "osm_layer": "settlements"}, "geometry": {"type": "Point", "coordinates": [-10.0586799, 8.4134619]}}, {"type": "Feature", "properties": {"name": "Fassawolo", "place": "village", "osm_layer": "settlements"}, "geometry": {"type": "Point", "coordinates": [-10.06576, 8.39193]}}, {"type": "Feature", "properties": {"name": "Hilgbelahun Town Center", "place": "hamlet", "osm_layer": "settlements"}, "geometry": {"type": "Point", "coordinates": [-10.02644, 8.39118]}}, {"type": "Feature", "properties": {"name": "Loliahun Town Center", "place": "hamlet", "osm_layer": "settlements"}, "geometry": {"type": "Point", "coordinates": [-9.9744432, 8.4221391]}}, {"type": "Feature", "properties": {"name": "Kpabee's Village", "place": "hamlet", "osm_layer": "settlements"}, "geometry": {"type": "Point", "coordinates": [-9.7598732, 8.452819]}}, {"type": "Feature", "properties": {"name": "Buluzigar Village", "place": "hamlet", "osm_layer": "settlements"}, "geometry": {"type": "Point", "coordinates": [-9.7454732, 8.470899]}}, {"type": "Feature", "properties": {"name": "Kuruka", "place": "village", "osm_layer": "settlements"}, "geometry": {"type": "Point", "coordinates": [-9.7202768, 8.4489725]}}, {"type": "Feature", "properties": {"name": "Bolongoidu", "place": "village", "osm_layer": "settlements"}, "geometry": {"type": "Point", "coordinates": [-9.66254, 8.48772]}}, {"type": "Feature", "properties": {"name": "Barkadou", "place": "hamlet", "osm_layer": "settlements"}, "geometry": {"type": "Point", "coordinates": [-9.692559, 8.440695]}}, {"type": "Feature", "properties": {"name": "Sasanin", "place": "hamlet", "osm_layer": "settlements"}, "geometry": {"type": "Point", "coordinates": [-10.26878, 8.31921]}}, {"type": "Feature", "properties": {"name": "Kaniloe", "place": "hamlet", "osm_layer": "settlements"}, "geometry": {"type": "Point", "coordinates": [-10.24387, 8.32999]}}, {"type": "Feature", "properties": {"name": "Kayabendu", "place": "hamlet", "osm_layer": "settlements"}, "geometry": {"type": "Point", "coordinates": [-10.21922, 8.30975]}}, {"type": "Feature", "properties": {"name": "Ngalahun Village", "place": "hamlet", "osm_layer": "settlements"}, "geometry": {"type": "Point", "coordinates": [-10.15779, 8.28959]}}, {"type": "Feature", "properties": {"name": "Nyokolitahun Town Center", "place": "hamlet", "osm_layer": "settlements"}, "geometry": {"type": "Point", "coordinates": [-10.14687, 8.24399]}}, {"type": "Feature", "properties": {"name": "Tagrahun Town", "place": "hamlet", "osm_layer": "settlements"}, "geometry": {"type": "Point", "coordinates": [-10.156939, 8.2409489]}}, {"type": "Feature", "properties": {"name": "Yakakpomo", "place": "hamlet", "osm_layer": "settlements"}, "geometry": {"type": "Point", "coordinates": [-10.2364232, 8.3110701]}}, {"type": "Feature", "properties": {"name": "Yengbelahun Town Center", "place": "hamlet", "osm_layer": "settlements"}, "geometry": {"type": "Point", "coordinates": [-10.1358956, 8.2395373]}}, {"type": "Feature", "properties": {"name": "Fofanata", "place": "hamlet", "osm_layer": "settlements"}, "geometry": {"type": "Point", "coordinates": [-10.1983465, 8.1842757]}}, {"type": "Feature", "properties": {"name": "Fokolahun", "place": "hamlet", "osm_layer": "settlements"}, "geometry": {"type": "Point", "coordinates": [-10.27496, 8.15979]}}, {"type": "Feature", "properties": {"name": "Kamboima", "place": "hamlet", "osm_layer": "settlements"}, "geometry": {"type": "Point", "coordinates": [-10.24502, 8.25898]}}, {"type": "Feature", "properties": {"name": "Kenyatahun", "place": "hamlet", "osm_layer": "settlements"}, "geometry": {"type": "Point", "coordinates": [-10.2174236, 8.1628278]}}, {"type": "Feature", "properties": {"name": "Kimbalahun", "place": "hamlet", "osm_layer": "settlements"},