{"type": "FeatureCollection", "features": [{"type": "Feature", "properties": {"name": "Nouadhibou \u0646\u0648\u0627\u0630\u064a\u0628\u0648", "place": "city", "osm_layer": "settlements"}, "geometry": {"type": "Point", "coordinates": [-17.0503094, 20.9127045]}}, {"type": "Feature", "properties": {"name": "\u0646\u0648\u0627\u0643\u0634\u0648\u0637", "place": "city", "osm_layer": "settlements"}, "geometry": {"type": "Point", "coordinates": [-15.9780071, 18.0792379]}}, {"type": "Feature", "properties": {"name": "\u0631\u0648\u0635\u0648", "place": "city", "osm_layer": "settlements"}, "geometry": {"type": "Point", "coordinates": [-15.8099665, 16.5132493]}}, {"type": "Feature", "properties": {"name": "Ka\u00e9di \u0643\u064a\u0647\u064a\u062f\u064a", "place": "city", "osm_layer": "settlements"}, "geometry": {"type": "Point", "coordinates": [-13.5039868, 16.1523684]}}, {"type": "Feature", "properties": {"name": "A\u00efoun El Atrouss \u0627\u0644\u0639\u064a\u0648\u0646", "place": "city", "osm_layer": "settlements"}, "geometry": {"type": "Point", "coordinates": [-9.6178808, 16.6597742]}}, {"type": "Feature", "properties": {"name": "Kiffa \u0643\u064a\u0641\u0629", "place": "city", "osm_layer": "settlements"}, "geometry": {"type": "Point", "coordinates": [-11.4002038, 16.6161559]}}, {"type": "Feature", "properties": {"name": "Aleg \u0623\u0644\u0627\u0643", "place": "city", "osm_layer": "settlements"}, "geometry": {"type": "Point", "coordinates": [-13.9152949, 17.0527177]}}, {"type": "Feature", "properties": {"name": "Bogh\u00e9 \u0628\u0648\u063a\u064a", "place": "city", "osm_layer": "settlements"}, "geometry": {"type": "Point", "coordinates": [-14.2596029, 16.595775]}}, {"type": "Feature", "properties": {"name": "Sald\u00e9", "place": "village", "osm_layer": "settlements"}, "geometry": {"type": "Point", "coordinates": [-13.880683, 16.162313]}}, {"type": "Feature", "properties": {"name": "Atar \u0623\u0637\u0627\u0631", "place": "city", "osm_layer": "settlements"}, "geometry": {"type": "Point", "coordinates": [-13.0543928, 20.5181943]}}, {"type": "Feature", "properties": {"name": "Ouadane \u0648\u0627\u062f\u0627\u0646", "place": "city", "osm_layer": "settlements"}, "geometry": {"type": "Point", "coordinates": [-11.6173738, 20.9337256]}}, {"type": "Feature", "properties": {"name": "Chinguetti \u0634\u0646\u0642\u064a\u0637", "place": "city", "osm_layer": "settlements"}, "geometry": {"type": "Point", "coordinates": [-12.3664837, 20.4634336]}}, {"type": "Feature", "properties": {"name": "F'Derick \u0627\u0641\u062f\u064a\u0631\u0643", "place": "town", "osm_layer": "settlements"}, "geometry": {"type": "Point", "coordinates": [-12.7118856, 22.6777611]}}, {"type": "Feature", "properties": {"name": "Zou\u00e9rate \u0627\u0644\u0632\u0648\u064a\u0631\u0627\u062a", "place": "city", "osm_layer": "settlements"}, "geometry": {"type": "Point", "coordinates": [-12.4664916, 22.7402065]}}, {"type": "Feature", "properties": {"name": "Moudj\u00e9ria \u0645\u0648\u062f\u062c\u064a\u0631\u064a\u0627", "place": "city", "osm_layer": "settlements"}, "geometry": {"type": "Point", "coordinates": [-12.3321238, 17.8787994]}}, {"type": "Feature", "properties": {"name": "Sangrave \u0635\u0646\u0643\u0631\u0627\u0641\u0629", "place": "town", "osm_layer": "settlements"}, "geometry": {"type": "Point", "coordinates": [-12.8405391, 17.5962382]}}, {"type": "Feature", "properties": {"name": "\u0627\u0644\u0643\u0648\u064a\u0631\u0629", "place": "town", "osm_layer": "settlements"}, "geometry": {"type": "Point", "coordinates": [-17.089121, 20.833322]}}, {"type": "Feature", "properties": {"name": "\u0631\u0623\u0633 \u062f\u0648\u0628\u0648\u0634\u0627\u062c", "place": "hamlet", "osm_layer": "settlements"}, "geometry": {"type": "Point", "coordinates": [-17.1046117, 20.8439352]}}, {"type": "Feature", "properties": {"name": "Dar Assalama \u062f\u0627\u0631 \u0627\u0644\u0633\u0644\u0627\u0645", "place": "village", "osm_layer": "settlements"}, "geometry": {"type": "Point", "coordinates": [-12.1249088, 17.9014665]}}, {"type": "Feature", "properties": {"name": "Boutilimit \u0628\u0648\u062a\u0644\u0645\u064a\u062a", "place": "city", "osm_layer": "settlements"}, "geometry": {"type": "Point", "coordinates": [-14.6964911, 17.5488614]}}, {"type": "Feature", "properties": {"name": "Kobenni \u0643\u0648\u0628\u0627\u0646\u064a", "place": "city", "osm_layer": "settlements"}, "geometry": {"type": "Point", "coordinates": [-9.4161525, 15.822645]}}, {"type": "Feature", "properties": {"name": "Trede \u062a\u0631\u064a\u062f", "place": "hamlet", "osm_layer": "settlements"}, "geometry": {"type": "Point", "coordinates": [-9.3720354, 15.7933169]}}, {"type": "Feature", "properties": {"name": "Taief \u0627\u0644\u0637\u0627\u0626\u0641", "place": "village", "osm_layer": "settlements"}, "geometry": {"type": "Point", "coordinates": [-11.6423729, 16.7600255]}}, {"type": "Feature", "properties": {"name": "\u0623\u0634\u0631\u0645", "place": "town", "osm_layer": "settlements"}, "geometry": {"type": "Point", "coordinates": [-12.4333739, 17.3601721]}}, {"type": "Feature", "properties": {"name": "Akjoujt \u0623\u0643\u062c\u0648\u062c\u062a", "place": "city", "osm_layer": "settlements"}, "geometry": {"type": "Point", "coordinates": [-14.3855238, 19.7435804]}}, {"type": "Feature", "properties": {"name": "Benichab \u0628\u0646\u0634\u0627\u0628", "place": "village", "osm_layer": "settlements"}, "geometry": {"type": "Point", "coordinates": [-15.4283022, 19.4661066]}}, {"type": "Feature", "properties": {"name": "Mechrou Lejwad", "place": "hamlet", "osm_layer": "settlements"}, "geometry": {"type": "Point", "coordinates": [-14.7248909, 19.6481844]}}, {"type": "Feature", "properties": {"name": "Agagaktem", "place": "village", "osm_layer": "settlements"}, "geometry": {"type": "Point", "coordinates": [-6.3481923, 23.1514337]}}, {"type": "Feature", "properties": {"name": "Biliko\u00eft\u00e9", "place": "village", "osm_layer": "settlements"}, "geometry": {"type": "Point", "coordinates": [-11.5892458, 15.5389866]}}, {"type": "Feature", "properties": {"name": "El Gueleita", "place": "village", "osm_layer": "settlements"}, "geometry": {"type": "Point", "coordinates": [-11.1939526, 15.3843443]}}, {"type": "Feature", "properties": {"name": "Tafacirga", "place": "village", "osm_layer": "settlements"}, "geometry": {"type": "Point", "coordinates": [-12.1904562, 14.7570027]}}, {"type": "Feature", "properties": {"name": "Bir Moghre\u00efn \u0628\u0626\u0631 \u0623\u0645 \u0642\u0631\u064a\u0646", "place": "town", "osm_layer": "settlements"}, "geometry": {"type": "Point", "coordinates": [-11.5810134, 25.2311431]}}, {"type": "Feature", "properties": {"name": "Thialy", "place": "village", "osm_layer": "settlements"}, "geometry": {"type": "Point", "coordinates": [-13.1053463, 15.5164926]}}, {"type": "Feature", "properties": {"name": null, "place": "village", "osm_layer": "settlements"}, "geometry": {"type": "Point", "coordinates": [-13.1269076, 15.5931217]}}, {"type": "Feature", "properties": {"name": "Kabou", "place": "village", "osm_layer": "settlements"}, "geometry": {"type": "Point", "coordinates": [-12.091438, 14.7323448]}}, {"type": "Feature", "properties": {"name": "\u062e\u0628\u0648", "place": "town", "osm_layer": "settlements"}, "geometry": {"type": "Point", "coordinates": [-12.0872617, 14.7408783]}}, {"type": "Feature", "properties": {"name": "Gouthioube", "place": "village", "osm_layer": "settlements"}, "geometry": {"type": "Point", "coordinates": [-12.2293898, 14.7580352]}}, {"type": "Feature", "properties": {"name": "Kotera", "place": "village", "osm_layer": "settlements"}, "geometry": {"type": "Point", "coordinates": [-12.1760517, 14.7593256]}}, {"type": "Feature", "properties": {"name": "S\u00e9gala", "place": "village", "osm_layer": "settlements"}, "geometry": {"type": "Point", "coordinates": [-12.1238616, 14.7608134]}}, {"type": "Feature", "properties": {"name": "Kounghany", "place": "village", "osm_layer": "settlements"}, "geometry": {"type": "Point", "coordinates": [-12.398698, 14.8427915]}}, {"type": "Feature", "properties": {"name": "\u062f\u064a\u0627\u0643\u064a\u0644\u064a", "place": "town", "osm_layer": "settlements"}, "geometry": {"type": "Point", "coordinates": [-12.392932, 14.847318]}}, {"type": "Feature", "properties": {"name": "Gouraye \u063a\u0648\u0631\u064a", "place": "town", "osm_layer": "settlements"}, "geometry": {"type": "Point", "coordinates": [-12.4502374, 14.9009845]}}, {"type": "Feature", "properties": {"name": null, "place": "hamlet", "osm_layer": "settlements"}, "geometry": {"type": "Point", "coordinates": [-13.1604397, 15.6208713]}}, {"type": "Feature", "properties": {"name": "Diamm\u00e9l", "place": "village", "osm_layer": "settlements"}, "geometry": {"type": "Point", "coordinates": [-13.2368526, 15.6779434]}}, {"type": "Feature", "properties": {"name": "Siv\u00e9 \u0633\u064a\u0641\u064a", "place": "village", "osm_layer": "settlements"}, "geometry": {"type": "Point", "coordinates": [-13.2098588, 15.701321]}}, {"type": "Feature", "properties": {"name": "Kound\u00e9l R\u00e9o \u0643\u0648\u0646\u062f\u064a\u0644 \u0631\u064a\u0648", "place": "village", "osm_layer": "settlements"}, "geometry": {"type": "Point", "coordinates": [-13.2618747, 15.7822158]}}, {"type": "Feature", "properties": {"name": "Niima", "place": "village", "osm_layer": "settlements"}, "geometry": {"type": "Point", "coordinates": [-13.2892907, 15.7927743]}}, {"type": "Feature", "properties": {"name": "Oudourou", "place": "village", "osm_layer": "settlements"}, "geometry": {"type": "Point", "coordinates": [-13.3052679, 15.8418139]}}, {"type": "Feature", "properties": {"name": "Sad\u00e9l", "place": "village", "osm_layer": "settlements"}, "geometry": {"type": "Point", "coordinates": [-13.3348714, 15.9004354]}}, {"type": "Feature", "properties": {"name": "Abdallah", "place": "village", "osm_layer": "settlements"}, "geometry": {"type": "Point", "coordinates": [-13.9732396, 16.2379916]}}, {"type": "Feature", "properties": {"name": "Souraye", "place": "village", "osm_layer": "settlements"}, "geometry": {"type": "Point", "coordinates": [-13.9565573, 16.2667547]}}, {"type": "Feature", "properties": {"name": "Thioubalel Lao", "place": "village", "osm_layer": "settlements"}, "geometry": {"type": "Point", "coordinates": [-13.9859381, 16.2716445]}}, {"type": "Feature", "properties": {"name": "Bito", "place": "village", "osm_layer": "settlements"}, "geometry": {"type": "Point", "coordinates": [-13.9930093, 16.2979852]}}, {"type": "Feature", "properties": {"name": "Nguidjilone", "place": "town", "osm_layer": "settlements"}, "geometry": {"type": "Point", "coordinates": [-13.3500113, 15.9397485]}}, {"type": "Feature", "properties": {"name": "Gawdal II", "place": "village", "osm_layer": "settlements"}, "geometry": {"type": "Point", "coordinates": [-13.4128518, 16.0665794]}}, {"type": "Feature", "properties": {"name": "Diowguel", "place": "village", "osm_layer": "settlements"}, "geometry": {"type": "Point", "coordinates": [-13.6910228, 16.0990765]}}, {"type": "Feature", "properties": {"name": "Diorbivol", "place": "village", "osm_layer": "settlements"}, "geometry": {"type": "Point", "coordinates": [-13.697718, 16.1030595]}}, {"type": "Feature", "properties": {"name": "Ndiafat Sorokoum", "place": "village", "osm_layer": "settlements"}, "geometry": {"type": "Point", "coordinates": [-13.6244623, 16.1067814]}}, {"type": "Feature", "properties": {"name": "Sintiou Boummaka", "place": "village", "osm_layer": "settlements"}, "geometry": {"type": "Point", "coordinates": [-13.6102418, 16.1138335]}}, {"type": "Feature", "properties": {"name": "Diol Soubalb\u00e9", "place": "village", "osm_layer": "settlements"}, "geometry": {"type": "Point", "coordinates": [-13.5111394, 16.1171341]}}, {"type": "Feature", "properties": {"name": "Silla Ouorgo", "place": "village", "osm_layer": "settlements"}, "geometry": {"type": "Point", "coordinates": [-13.5876944, 16.1252233]}}, {"type": "Feature", "properties": {"name": "Gabob\u00e9", "place": "village", "osm_layer": "settlements"}, "geometry": {"type": "Point", "coordinates": [-13.5388766, 16.1273958]}}, {"type": "Feature", "properties": {"name": "Silla", "place": "village", "osm_layer": "settlements"}, "geometry": {"type": "Point", "coordinates": [-13.5894699, 16.1295078]}}, {"type": "Feature", "properties": {"name": "Moll\u00e9 Walo", "place": "hamlet", "osm_layer": "settlements"}, "geometry": {"type": "Point", "coordinates": [-13.4932913, 16.140142]}}, {"type": "Feature", "properties": {"name": "Sintiou Diamdior\u00e9", "place": "village", "osm_layer": "settlements"}, "geometry": {"type": "Point", "coordinates": [-13.505093, 16.0824305]}}, {"type": "Feature", "properties": {"name": "Guiraye \u0643\u064a\u0631\u064a", "place": "village", "osm_layer": "settlements"}, "geometry": {"type": "Point", "coordinates": [-13.4487366, 16.1035657]}}, {"type": "Feature", "properties": {"name": "Vendihla \u0641\u0646\u062f\u064a\u0647\u0644\u0627", "place": "village", "osm_layer": "settlements"}, "geometry": {"type": "Point", "coordinates": [-13.8389283, 16.1155484]}}, {"type": "Feature", "properties": {"name": "Barogal \u0628\u0627\u0631\u0643\u0627\u0644", "place": "village", "osm_layer": "settlements"}, "geometry": {"type": "Point", "coordinates": [-13.4909767, 16.1216964]}}, {"type": "Feature", "properties": {"name": "Rouli Aoudi \u0631\u0648\u062a\u064a \u0623\u0648\u062f\u064a", "place": "village", "osm_layer": "settlements"}, "geometry": {"type": "Point", "coordinates": [-13.7130552, 16.1454337]}}, {"type": "Feature", "properties": {"name": "M'Bagne \u0627\u0645\u0628\u0627\u0646\u064a", "place": "town", "osm_layer": "settlements"}, "geometry": {"type": "Point", "coordinates": [-13.7871497, 16.1483748]}}, {"type": "Feature", "properties": {"name": "Dougou", "place": "village", "osm_layer": "settlements"}, "geometry": {"type": "Point", "coordinates": [-13.7211395, 16.1474499]}}, {"type": "Feature", "properties": {"name": null, "place": "hamlet", "osm_layer": "settlements"}, "geometry": {"type": "Point", "coordinates": [-13.7021509, 16.1614342]}}, {"type": "Feature", "properties": {"name": "Dou\u00e9", "place": "village", "osm_layer": "settlements"}, "geometry": {"type": "Point", "coordinates": [-15.0450122, 16.6270396]}}, {"type": "Feature", "properties": {"name": "L\u00e9boudou Dou\u00e9", "place": "village", "osm_layer": "settlements"}, "geometry": {"type": "Point", "coordinates": [-15.0708705, 16.6510559]}}, {"type": "Feature", "properties": {"name": "Lexeiba \u0644\u0643\u0635\u064a\u0628\u0647", "place": "village", "osm_layer": "settlements"}, "geometry": {"type": "Point", "coordinates": [-14.9510965, 16.655798]}}, {"type": "Feature", "properties": {"name": "Guidakhar", "place": "village", "osm_layer": "settlements"}, "geometry": {"type": "Point", "coordinates": [-15.6240272, 16.5107819]}}, {"type": "Feature", "properties": {"name": "Sambowt\u00e9", "place": "village", "osm_layer": "settlements"}, "geometry": {"type": "Point", "coordinates": [-13.8557057, 16.1171144]}}, {"type": "Feature", "properties": {"name": "Ou\u00e2ss\u00e9t\u00e2k\u00e9", "place": "village", "osm_layer": "settlements"}, "geometry": {"type": "Point", "coordinates": [-13.8971166, 16.1876893]}}, {"type": "Feature", "properties": {"name": "Sori Mal\u00e9 \u0633\u0648\u0631\u064a \u0645\u0627\u0644\u064a", "place": "village", "osm_layer": "settlements"}, "geometry": {"type": "Point", "coordinates": [-13.8928839, 16.1955889]}}, {"type": "Feature", "properties": {"name": "Diaranguel", "place": "village", "osm_layer": "settlements"}, "geometry": {"type": "Point", "coordinates": [-13.9215125, 16.2142829]}}, {"type": "Feature", "properties": {"name": "Ouallah", "place": "village", "osm_layer": "settlements"}, "geometry": {"type": "Point", "coordinates": [-13.9693962, 16.220466]}}, {"type": "Feature", "properties": {"name": "F\u00f4nd\u00e9 Elimane", "place": "village", "osm_layer": "settlements"}, "geometry": {"type": "Point", "coordinates": [-13.9800253, 16.313097]}}, {"type": "Feature", "properties": {"name": "Dioud\u00e9 Diab\u00e9", "place": "village", "osm_layer": "settlements"}, "geometry": {"type": "Point", "coordinates": [-13.97984, 16.3286842]}}, {"type": "Feature", "properties": {"name": "Dounguel", "place": "village", "osm_layer": "settlements"}, "geometry": {"type": "Point", "coordinates": [-14.0312102, 16.3454482]}}, {"type": "Feature", "properties": {"name": "Cas-Cas", "place": "village", "osm_layer": "settlements"}, "geometry": {"type": "Point", "coordinates": [-14.0563725, 16.3827212]}}, {"type": "Feature", "properties": {"name": "Toire Goll\u00e9r\u00e9 \u062a\u0648\u064a\u0631 \u0643\u0644\u064a\u0631\u064a", "place": "village", "osm_layer": "settlements"}, "geometry": {"type": "Point", "coordinates": [-14.009521, 16.4007755]}}, {"type": "Feature", "properties": {"name": null, "place": "hamlet", "osm_layer": "settlements"}, "geometry": {"type": "Point", "coordinates": [-14.106149, 16.435561]}}, {"type": "Feature", "properties": {"name": "Sar\u00e9 Souki", "place": "village", "osm_layer": "settlements"}, "geometry": {"type": "Point", "coordinates": [-14.1099776, 16.4355847]}}, {"type": "Feature", "properties": {"name": "Siwr\u00e9", "place": "village", "osm_layer": "settlements"}, "geometry": {"type": "Point", "coordinates": [-14.1417937, 16.4548396]}}, {"type": "Feature", "properties": {"name": "W\u00e9tii \u0648\u064a\u062a\u064a", "place": "village", "osm_layer": "settlements"}, "geometry": {"type": "Point", "coordinates": [-14.1642917, 16.499639]}}, {"type": "Feature", "properties": {"name": "Boki", "place": "village", "osm_layer": "settlements"}, "geometry": {"type": "Point", "coordinates": [-14.2553827, 16.5116205]}}, {"type": "Feature", "properties": {"name": "Gahadji \u0643\u0627\u0647\u0627\u062c\u064a", "place": "village", "osm_layer": "settlements"}, "geometry": {"type": "Point", "coordinates": [-14.1864967, 16.53704]}}, {"type": "Feature", "properties": {"name": "D\u00e9m\u00e8t", "place": "village", "osm_layer": "settlements"}, "geometry": {"type": "Point", "coordinates": [-14.2774694, 16.5675046]}}, {"type": "Feature", "properties": {"name": "Tjide \u062a\u062c\u064a\u062f", "place": "village", "osm_layer": "settlements"}, "geometry": {"type": "Point", "coordinates": [-14.2223792, 16.5673654]}}, {"type": "Feature", "properties": {"name": "Ti\u00e9nel \u062a\u064a\u064a\u0646\u0644", "place": "village", "osm_layer": "settlements"}, "geometry": {"type": "Point", "coordinates": [-14.2624766, 16.569646]}}, {"type": "Feature", "properties": {"name": "Sintiou Dangd\u00e9", "place": "village", "osm_layer": "settlements"}, "geometry": {"type": "Point", "coordinates": [-14.3394467, 16.576151]}}, {"type": "Feature", "properties": {"name": "Bakaw", "place": "village", "osm_layer": "settlements"}, "geometry": {"type": "Point", "coordinates": [-14.2971331, 16.578012]}}, {"type": "Feature", "properties": {"name": "Nourmbos", "place": "village", "osm_layer": "settlements"}, "geometry": {"type": "Point", "coordinates": [-14.3321555, 16.6010716]}}, {"type": "Feature", "properties": {"name": "Mbagne Bodji \u0627\u0645\u0628\u0627\u0646\u064a \u0628\u0648\u062c\u064a", "place": "hamlet", "osm_layer": "settlements"}, "geometry": {"type": "Point", "coordinates": [-14.3250003, 16.6131692]}}, {"type": "Feature", "properties": {"name": null, "place": "hamlet", "osm_layer": "settlements"}, "geometry": {"type": "Point", "coordinates": [-14.230998, 16.6194059]}}, {"type": "Feature", "properties": {"name": "Pat\u00e9 Galo", "place": "village", "osm_layer": "settlements"}, "geometry": {"type": "Point", "coordinates": [-14.451418, 16.6208295]}}, {"type": "Feature", "properties": {"name": "Belana \u0628\u0644\u0627\u0646\u0627", "place": "village", "osm_layer": "settlements"}, "geometry": {"type": "Point", "coordinates": [-14.5948978, 16.62713]}}, {"type": "Feature", "properties": {"name": "Dara Hala\u00efbe", "place": "village", "osm_layer": "settlements"}, "geometry": {"type": "Point", "coordinates": [-14.4063462, 16.6297824]}}, {"type": "Feature", "properties": {"name": "Ndiaw Orgo \u0627\u0646\u062f\u064a\u0648 \u0623\u0631\u0643\u0648", "place": "village", "osm_layer": "settlements"}, "geometry": {"type": "Point", "coordinates": [-14.6379886, 16.6431906]}}, {"type": "Feature", "properties": {"name": "Guidala \u0643\u064a\u062f\u0627\u0644\u0627", "place": "village", "osm_layer": "settlements"}, "geometry": {"type": "Point", "coordinates": [-14.440822, 16.6399339]}}, {"type": "Feature", "properties": {"name": "Ngerel \u0627\u0646\u0643\u0631\u0644", "place": "village", "osm_layer": "settlements"}, "geometry": {"type": "Point", "coordinates": [-14.3440079, 16.6426346]}}, {"type": "Feature", "properties": {"name": "Olo Ologo \u0623\u0648\u0644\u0648 \u0623\u0648\u0644\u0648\u063a\u0648", "place": "village", "osm_layer": "settlements"}, "geometry": {"type": "Point", "coordinates": [-14.5438704, 16.6458032]}}, {"type": "Feature", "properties": {"name": "Ali-Gu\u00e9lel \u0639\u0644\u064a \u0643\u064a\u0644\u0644", "place": "village", "osm_layer": "settlements"}, "geometry": {"type": "Point", "coordinates": [-14.7253253, 16.6479333]}}, {"type": "Feature", "properties": {"name": null, "place": "hamlet", "osm_layer": "settlements"}, "geometry": {"type": "Point", "coordinates": [-14.8052509, 16.651038]}}, {"type": "Feature", "properties": {"name": "Sare Ndogou Diberi \u0633\u0627\u0643\u064a \u0627\u0646\u062f\u0643\u0648 \u062f\u064a\u0628\u064a\u0631\u064a", "place": "village", "osm_layer": "settlements"}, "geometry": {"type": "Point", "coordinates": [-14.3420322, 16.6539218]}}, {"type": "Feature", "properties": {"name": null, "place": "village", "osm_layer": "settlements"}, "geometry": {"type": "Point", "coordinates": [-14.3217744, 16.656099]}}, {"type": "Feature", "properties": {"name": "Oua Oua", "place": "hamlet", "osm_layer": "settlements"}, "geometry": {"type": "Point", "coordinates": [-14.5005953, 16.6126842]}}, {"type": "Feature", "properties": {"name": "Kop\u00e9", "place": "hamlet", "osm_layer": "settlements"}, "geometry": {"type": "Point", "coordinates": [-14.5256146, 16.6254233]}}, {"type": "Feature", "properties": {"name": "Soukounab\u00e9 \u0633\u0648\u0643\u0648\u0646\u0627\u0628\u064a", "place": "village", "osm_layer": "settlements"}, "geometry": {"type": "Point", "coordinates": [-14.4705094, 16.6286445]}}, {"type": "Feature", "properties": {"name": "Moundaye Orgo", "place": "village", "osm_layer": "settlements"}, "geometry": {"type": "Point", "coordinates": [-14.6997899, 16.6401364]}}, {"type": "Feature", "properties": {"name": null, "place": "village", "osm_layer": "settlements"}, "geometry": {"type": "Point", "coordinates": [-14.7025715, 16.642129]}}, {"type": "Feature", "properties": {"name": null, "place": "village", "osm_layer": "settlements"}, "geometry": {"type": "Point", "coordinates": [-14.6646188, 16.6440188]}}, {"type": "Feature", "properties": {"name": "Ndiaw R\u00e9o \u0627\u0646\u062f\u064a\u0648 \u0631\u064a\u0648", "place": "village", "osm_layer": "settlements"}, "geometry": {"type": "Point", "coordinates": [-14.6659262, 16.6477568]}}, {"type": "Feature", "properties": {"name": "Korkadi\u00e9", "place": "village", "osm_layer": "settlements"}, "geometry": {"type": "Point", "coordinates": [-14.7366941, 16.6163897]}}, {"type": "Feature", "properties": {"name": "Gu\u00e9d\u00e9 Ouro", "place": "hamlet", "osm_layer": "settlements"}, "geometry": {"type": "Point", "coordinates": [-14.7929237, 16.6274338]}}, {"type": "Feature", "properties": {"name": "Mboyo", "place": "village", "osm_layer": "settlements"}, "geometry": {"type": "Point", "coordinates": [-14.8001905, 16.6360182]}}, {"type": "Feature", "properties": {"name": "Jidr El Mohguen", "place": "village", "osm_layer": "settlements"}, "geometry": {"type": "Point", "coordinates": [-15.50891, 16.5294076]}}, {"type": "Feature", "properties": {"name": null, "place": "hamlet", "osm_layer": "settlements"}, "geometry": {"type": "Point", "coordinates": [-15.5162563, 16.5387979]}}, {"type": "Feature", "properties": {"name": null, "place": "hamlet", "osm_layer": "settlements"}, "geometry": {"type": "Point", "coordinates": [-15.6398918, 16.554783]}}, {"type": "Feature", "properties": {"name": "Ndiar\u00e8me", "place": "village", "osm_layer": "settlements"}, "geometry": {"type": "Point", "coordinates": [-15.4363821, 16.5585326]}}, {"type": "Feature", "properties": {"name": "Diatar", "place": "village", "osm_layer": "settlements"}, "geometry": {"type": "Point", "coordinates": [-14.9104152, 16.631655]}}, {"type": "Feature", "properties": {"name": null, "place": "village", "osm_layer": "settlements"}, "geometry": {"type": "Point", "coordinates": [-14.2662535, 16.6362883]}}, {"type": "Feature", "properties": {"name": "Donaye", "place": "village", "osm_layer": "settlements"}, "geometry": {"type": "Point", "coordinates": [-14.8643324, 16.6371378]}}, {"type": "Feature", "properties": {"name": "Tess\u00e8m \u062a\u0633\u064a\u0645", "place": "village", "osm_layer": "settlements"}, "geometry": {"type": "Point", "coordinates": [-14.8362832, 16.6421494]}}, {"type": "Feature", "properties": {"name": "Diatar \u062f\u064a\u0627\u062a\u0627\u0631", "place": "village", "osm_layer": "settlements"}, "geometry": {"type": "Point", "coordinates": [-14.9061913, 16.6462007]}}, {"type": "Feature", "properties": {"name": null, "place": "village", "osm_layer": "settlements"}, "geometry": {"type": "Point", "coordinates": [-14.9985949, 16.6641653]}}, {"type": "Feature", "properties": {"name": "Simon \u0633\u064a\u0645\u0648\u0646", "place": "hamlet", "osm_layer": "settlements"}, "geometry": {"type": "Point", "coordinates": [-14.9810953, 16.7240214]}}, {"type": "Feature", "properties": {"name": null, "place": "village", "osm_layer": "settlements"}, "geometry": {"type": "Point", "coordinates": [-7.8690346, 16.2877267]}}, {"type": "Feature", "properties": {"name": null, "place": "village", "osm_layer": "settlements"}, "geometry": {"type": "Point", "coordinates": [-7.91109, 16.3631571]}}, {"type": "Feature", "properties": {"name": null, "place": "village", "osm_layer": "settlements"}, "geometry": {"type": "Point", "coordinates": [-7.8191326, 16.1069509]}}, {"type": "Feature", "properties": {"name": null, "place": "village", "osm_layer": "settlements"}, "geometry": {"type": "Point", "coordinates": [-7.7624471, 15.7540773]}}, {"type": "Feature", "properties": {"name": null, "place": "hamlet", "osm_layer": "settlements"}, "geometry": {"type": "Point", "coordinates": [-7.7169845, 15.5361027]}}, {"type": "Feature", "properties": {"name": "Timbedra \u062a\u0645\u0628\u062f\u063a\u0629", "place": "city", "osm_layer": "settlements"}, "geometry": {"type": "Point", "coordinates": [-8.1643866, 16.2432075]}}, {"type": "Feature", "properties": {"name": null, "place": "hamlet", "osm_layer": "settlements"}, "geometry": {"type": "Point", "coordinates": [-7.7851386, 15.8832276]}}, {"type": "Feature", "properties": {"name": null, "place": "hamlet", "osm_layer": "settlements"}, "geometry": {"type": "Point", "coordinates": [-7.7459032, 15.8780263]}}, {"type": "Feature", "properties": {"name": null, "place": "village", "osm_layer": "settlements"}, "geometry": {"type": "Point", "coordinates": [-7.7815286, 15.6552605]}}, {"type": "Feature", "properties": {"name": null, "place": "hamlet", "osm_layer": "settlements"}, "geometry": {"type": "Point", "coordinates": [-7.8587649, 16.417521]}}, {"type": "Feature", "properties": {"name": "Bou\u00e7\u1e6da", "place": "town", "osm_layer": "settlements"}, "geometry": {"type": "Point", "coordinates": [-7.8498922, 16.4001913]}}, {"type": "Feature", "properties": {"name": "Legara", "place": "village", "osm_layer": "settlements"}, "geometry": {"type": "Point", "coordinates": [-5.4783815, 15.8833526]}}, {"type": "Feature", "properties": {"name": "Iounoua Gilim", "place": "village", "osm_layer": "settlements"}, "geometry": {"type": "Point", "coordinates": [-5.4367146, 15.9966349]}}, {"type": "Feature", "properties": {"name": null, "place": "village", "osm_layer": "settlements"}, "geometry": {"type": "Point", "coordinates": [-7.508868, 15.6148512]}}, {"type": "Feature", "properties": {"name": null, "place": "village", "osm_layer": "settlements"}, "geometry": {"type": "Point", "coordinates": [-7.1465863, 15.8455166]}}, {"type": "Feature", "properties": {"name": null, "place": "village", "osm_layer": "settlements"}, "geometry": {"type": "Point", "coordinates": [-7.0807746, 15.7740001]}}, {"type": "Feature", "properties": {"name": null, "place": "hamlet", "osm_layer": "settlements"}, "geometry": {"type": "Point", "coordinates": [-7.0368422, 15.5092636]}}, {"type": "Feature", "properties": {"name": null, "place": "hamlet", "osm_layer": "settlements"}, "geometry": {"type": "Point", "coordinates": [-7.0373872, 15.6180968]}}, {"type": "Feature", "properties": {"name": null, "place": "village", "osm_layer": "settlements"}, "geometry": {"type": "Point", "coordinates": [-7.0612481, 15.7005547]}}, {"type": "Feature", "properties": {"name": null, "place": "village", "osm_layer": "settlements"}, "geometry": {"type": "Point", "coordinates": [-7.0423997, 15.6570453]}}, {"type": "Feature", "properties": {"name": null, "place": "village", "osm_layer": "settlements"}, "geometry": {"type": "Point", "coordinates": [-7.2364844, 15.5406892]}}, {"type": "Feature", "properties": {"name": null, "place": "village", "osm_layer": "settlements"}, "geometry": {"type": "Point", "coordinates": [-7.1639585, 15.5463112]}}, {"type": "Feature", "properties": {"name": "Mils", "place": "hamlet", "osm_layer": "settlements"}, "geometry": {"type": "Point", "coordinates": [-7.1467789, 15.8541357]}}, {"type": "Feature", "properties": {"name": null, "place": "village", "osm_layer": "settlements"}, "geometry": {"type": "Point", "coordinates": [-7.4201068, 15.5923982]}}, {"type": "Feature", "properties": {"name": "Adel Bagrou \u0639\u062f\u0644 \u0628\u0643\u0631\u0648", "place": "town", "osm_layer": "settlements"}, "geometry": {"type": "Point", "coordinates": [-7.028246, 15.5337297]}}, {"type": "Feature", "properties": {"name": null, "place": "hamlet", "osm_layer": "settlements"}, "geometry": {"type": "Point", "coordinates": [-7.1540424, 15.8549716]}}, {"type": "Feature", "properties": {"name": "Ehel Jidou Ould Navae", "place": "village", "osm_layer": "settlements"}, "geometry": {"type": "Point", "coordinates": [-7.0684465, 15.7164244]}}, {"type": "Feature", "properties": {"name": "Baghdad", "place": "village", "osm_layer": "settlements"}, "geometry": {"type": "Point", "coordinates": [-15.6982652, 16.474719]}}, {"type": "Feature", "properties": {"name": "Wassoul", "place": "village", "osm_layer": "settlements"}, "geometry": {"type": "Point", "coordinates": [-16.0257044, 16.4780799]}}, {"type": "Feature", "properties": {"name": "Khor", "place": "village", "osm_layer": "settlements"}, "geometry": {"type": "Point", "coordinates": [-15.9098306, 16.4949834]}}, {"type": "Feature", "properties": {"name": "Ndial\u00e8ne", "place": "village", "osm_layer": "settlements"}, "geometry": {"type": "Point", "coordinates": [-15.8726056, 16.4956565]}}, {"type": "Feature", "properties": {"name": "Brenn \u0628\u0631\u0646", "place": "village", "osm_layer": "settlements"}, "geometry": {"type": "Point", "coordinates": [-15.9310989, 16.5103475]}}, {"type": "Feature", "properties": {"name": "Garak \u0643\u0627\u0631\u0627\u0643", "place": "hamlet", "osm_layer": "settlements"}, "geometry": {"type": "Point", "coordinates": [-15.5199227, 16.5558169]}}, {"type": "Feature", "properties": {"name": "Diakou \u062f\u064a\u0627\u0643\u0648", "place": "village", "osm_layer": "settlements"}, "geometry": {"type": "Point", "coordinates": [-15.1539069, 16.5900706]}}, {"type": "Feature", "properties": {"name": "L\u00e9boudou Ouro Foulb\u00e9", "place": "village", "osm_layer": "settlements"}, "geometry": {"type": "Point", "coordinates": [-15.0898747, 16.5945909]}}, {"type": "Feature", "properties": {"name": null, "place": "village", "osm_layer": "settlements"}, "geometry": {"type": "Point", "coordinates": [-15.1299055, 16.6971983]}}, {"type": "Feature", "properties": {"name": null, "place": "village", "osm_layer": "settlements"}, "geometry": {"type": "Point", "coordinates": [-15.4337493, 16.7046117]}}, {"type": "Feature", "properties": {"name": "Nasral \u0646\u0627\u0633\u0631\u0627\u0644", "place": "village", "osm_layer": "settlements"}, "geometry": {"type": "Point", "coordinates": [-15.4837464, 16.6616175]}}, {"type": "Feature", "properties": {"name": "Sokam \u0633\u0643\u0627\u0645", "place": "village", "osm_layer": "settlements"}, "geometry": {"type": "Point", "coordinates": [-15.5102316, 16.622056]}}, {"type": "Feature", "properties": {"name": "Keek\u00e9 \u0643\u064a\u0643\u064a", "place": "village", "osm_layer": "settlements"}, "geometry": {"type": "Point", "coordinates": [-15.4590104, 16.6062753]}}, {"type": "Feature", "properties": {"name": "Kaeke \u0643\u064a\u0643\u064a", "place": "village", "osm_layer": "settlements"}, "geometry": {"type": "Point", "coordinates": [-15.4633377, 16.6121259]}}, {"type": "Feature", "properties": {"name": "Lebrar \u0644\u0628\u0631\u0627\u0631", "place": "village", "osm_layer": "settlements"}, "geometry": {"type": "Point", "coordinates": [-14.6563709, 17.5271061]}}, {"type": "Feature", "properties": {"name": "Ouguey \u0623\u0648\u06af\u064a", "place": "village", "osm_layer": "settlements"}, "geometry": {"type": "Point", "coordinates": [-14.6307251, 17.512497]}}, {"type": "Feature", "properties": {"name": null, "place": "village", "osm_layer": "settlements"}, "geometry": {"type": "Point", "coordinates": [-14.6245674, 17.4973625]}}, {"type": "Feature", "properties": {"name": "Tenyargh \u062a\u0646\u064a\u0627\u0631\u063a", "place": "village", "osm_layer": "settlements"}, "geometry": {"type": "Point", "coordinates": [-14.5993793, 17.4881228]}}, {"type": "Feature", "properties": {"name": "Arafat \u0639\u0631\u0641\u0627\u062a", "place": "village", "osm_layer": "settlements"}, "geometry": {"type": "Point", "coordinates": [-14.5552737, 17.4932933]}}, {"type": "Feature", "properties": {"name": "\u0627\u0644\u0645\u062d\u0645\u062f\u064a\u0629", "place": "village", "osm_layer": "settlements"}, "geometry": {"type": "Point", "coordinates": [-14.4573725, 17.4181979]}}, {"type": "Feature", "properties": {"name": null, "place": "village", "osm_layer": "settlements"}, "geometry": {"type": "Point", "coordinates": [-14.5412291, 17.4306865]}}, {"type": "Feature", "properties": {"name": "Ajouir \u0627\u062c\u0648\u06cc\u0631", "place": "village", "osm_layer": "settlements"}, "geometry": {"type": "Point", "coordinates": [-14.3489876, 17.2878522]}}, {"type": "Feature", "properties": {"name": null, "place": "village", "osm_layer": "settlements"}, "geometry": {"type": "Point", "coordinates": [-14.3948663, 17.3416715]}}, {"type": "Feature", "properties": {"name": "Aghchorguitt \u0623\u063a\u0634\u0648\u0631\u0643\u064a\u062a", "place": "village", "osm_layer": "settlements"}, "geometry": {"type": "Point", "coordinates": [-14.1879656, 17.2157447]}}, {"type": "Feature", "properties": {"name": null, "place": "village", "osm_layer": "settlements"}, "geometry": {"type": "Point", "coordinates": [-14.0689457, 17.1266254]}}, {"type": "Feature", "properties": {"name": null, "place": "village", "osm_layer": "settlements"}, "geometry": {"type": "Point", "coordinates": [-13.9644683, 17.0310422]}}, {"type": "Feature", "properties": {"name": null, "place": "village", "osm_layer": "settlements"}, "geometry": {"type": "Point", "coordinates": [-15.5598212, 16.8006525]}}, {"type": "Feature", "properties": {"name": "Tiguent \u062a\u0643\u0646\u062a", "place": "town", "osm_layer": "settlements"}, "geometry": {"type": "Point", "coordinates": [-16.0464119, 17.1706847]}}, {"type": "Feature", "properties": {"name": "Mederdra \u0627\u0644\u0645\u0630\u0631\u0630\u0631\u0629", "place": "town", "osm_layer": "settlements"}, "geometry": {"type": "Point", "coordinates": [-15.6601304, 16.9199893]}}, {"type": "Feature", "properties": {"name": null, "place": "village", "osm_layer": "settlements"}, "geometry": {"type": "Point", "coordinates": [-15.69906, 16.8743626]}}, {"type": "Feature", "properties": {"name": null, "place": "village", "osm_layer": "settlements"}, "geometry": {"type": "Point", "coordinates": [-15.8075929, 16.7090347]}}, {"type": "Feature", "properties": {"name": "Arch\u00e2ne ech Chergui", "place": "village", "osm_layer": "settlements"}, "geometry": {"type": "Point", "coordinates": [-14.7755419, 17.4663947]}}, {"type": "Feature", "properties": {"name": null, "place": "village", "osm_layer": "settlements"}, "geometry": {"type": "Point", "coordinates": [-14.8692604, 17.360842]}}, {"type": "Feature", "properties": {"name": null, "place": "village", "osm_layer": "settlements"}, "geometry": {"type": "Point", "coordinates": [-15.0516088, 17.1762513]}}, {"type": "Feature", "properties": {"name": null, "place": "village", "osm_layer": "settlements"}, "geometry": {"type": "Point", "coordinates": [-15.0752111, 17.1419019]}}, {"type": "Feature", "properties": {"name": "R'Kiz \u0627\u0631\u0643\u064a\u0632", "place": "city", "osm_layer": "settlements"}, "geometry": {"type": "Point", "coordinates": [-15.2355732, 16.920138]}}, {"type": "Feature", "properties": {"name": "Belghirbane \u0628\u0644\u063a\u0631\u0628\u0627\u0646", "place": "town", "osm_layer": "settlements"}, "geometry": {"type": "Point", "coordinates": [-15.1548645, 17.0595691]}}, {"type": "Feature", "properties": {"name": null, "place": "village", "osm_layer": "settlements"}, "geometry": {"type": "Point", "coordinates": [-15.1599645, 17.0260492]}}, {"type": "Feature", "properties": {"name": null, "place": "village", "osm_layer": "settlements"}, "geometry": {"type": "Point", "coordinates": [-15.2105686, 16.9387567]}}, {"type": "Feature", "properties": {"name": null, "place": "village", "osm_layer": "settlements"}, "geometry": {"type": "Point", "coordinates": [-15.5259018, 16.6349961]}}, {"type": "Feature", "properties": {"name": null, "place": "village", "osm_layer": "settlements"}, "geometry": {"type": "Point", "coordinates": [-15.7607571, 16.6092641]}}, {"type": "Feature", "properties": {"name": null, "place": "village", "osm_layer": "settlements"}, "geometry": {"type": "Point", "coordinates": [-15.736188, 16.633814]}}, {"type": "Feature", "properties": {"name": null, "place": "village", "osm_layer": "settlements"}, "geometry": {"type": "Point", "coordinates": [-15.6993345, 16.6783413]}}, {"type": "Feature", "properties": {"name": null, "place": "village", "osm_layer": "settlements"}, "geometry": {"type": "Point", "coordinates": [-15.6787995, 16.6847846]}}, {"type": "Feature", "properties": {"name": null, "place": "village", "osm_layer": "settlements"}, "geometry": {"type": "Point", "coordinates": [-15.6305626, 16.731602]}}, {"type": "Feature", "properties": {"name": null, "place": "village", "osm_layer": "settlements"}, "geometry": {"type": "Point", "coordinates": [-15.6306163, 16.7320849]}}, {"type": "Feature", "properties": {"name": null, "place": "village", "osm_layer": "settlements"}, "geometry": {"type": "Point", "coordinates": [-15.6175486, 16.7552938]}}, {"type": "Feature", "properties": {"name": null, "place": "village", "osm_layer": "settlements"}, "geometry": {"type": "Point", "coordinates": [-15.5291, 16.8318251]}}, {"type": "Feature", "properties": {"name": null, "place": "village", "osm_layer": "settlements"}, "geometry": {"type": "Point", "coordinates": [-15.4368479, 16.9826071]}}, {"type": "Feature", "properties": {"name": null, "place": "village", "osm_layer": "settlements"}, "geometry": {"type": "Point", "coordinates": [-15.3726843, 17.068556]}}, {"type": "Feature", "properties": {"name": null, "place": "village", "osm_layer": "settlements"}, "geometry": {"type": "Point", "coordinates": [-15.340905, 17.1005866]}}, {"type": "Feature", "properties": {"name": null, "place": "village", "osm_layer": "settlements"}, "geometry": {"type": "Point", "coordinates": [-15.3005973, 17.1497372]}}, {"type": "Feature", "properties": {"name": null, "place": "village", "osm_layer": "settlements"}, "geometry": {"type": "Point", "coordinates": [-15.2427903, 17.2338649]}}, {"type": "Feature", "properties": {"name": "Boubacare \u0628\u0648\u0628\u0627\u0643\u0627\u0631", "place": "village", "osm_layer": "settlements"}, "geometry": {"type": "Point", "coordinates": [-15.1848674, 17.2453357]}}, {"type": "Feature", "properties": {"name": null, "place": "village", "osm_layer": "settlements"}, "geometry": {"type": "Point", "coordinates": [-15.0075304, 17.4332899]}}, {"type": "Feature", "properties": {"name": null, "place": "village", "osm_layer": "settlements"}, "geometry": {"type": "Point", "coordinates": [-14.9945163, 17.4445978]}}, {"type": "Feature", "properties": {"name": null, "place": "village", "osm_layer": "settlements"}, "geometry": {"type": "Point", "coordinates": [-14.9257766, 17.5098188]}}, {"type": "Feature", "properties": {"name": null, "place": "village", "osm_layer": "settlements"}, "geometry": {"type": "Point", "coordinates": [-14.8320495, 17.3809968]}}, {"type": "Feature", "properties": {"name": null, "place": "village", "osm_layer": "settlements"}, "geometry": {"type": "Point", "coordinates": [-14.8494946, 17.3652282]}}, {"type": "Feature", "properties": {"name": null, "place": "village", "osm_layer": "settlements"}, "geometry": {"type": "Point", "coordinates": [-14.7280656, 17.5805267]}}, {"type": "Feature", "properties": {"name": "A\u00efn es Sal\u00e2ma", "place": "village", "osm_layer": "settlements"}, "geometry": {"type": "Point", "coordinates": [-14.6513374, 17.6262713]}}, {"type": "Feature", "properties": {"name": "Zem Zem \u0632\u0645 \u0632\u0645", "place": "village", "osm_layer": "settlements"}, "geometry": {"type": "Point", "coordinates": [-14.6951281, 17.5257387]}}, {"type": "Feature", "properties": {"name": null, "place": "village", "osm_layer": "settlements"}, "geometry": {"type": "Point", "coordinates": [-14.7532569, 17.5965426]}}, {"type": "Feature", "properties": {"name": null, "place": "village", "osm_layer": "settlements"}, "geometry": {"type": "Point", "coordinates": [-14.7930081, 17.6263705]}}, {"type": "Feature", "properties": {"name": "Kse\u00efr et Torch\u00e2ne", "place": "village", "osm_layer": "settlements"}, "geometry": {"type": "Point", "coordinates": [-13.0125118, 20.6937289]}}, {"type": "Feature", "properties": {"name": null, "place": "village", "osm_layer": "settlements"}, "geometry": {"type": "Point", "coordinates": [-13.0105704, 20.7271171]}}, {"type": "Feature", "properties": {"name": null, "place": "village", "osm_layer": "settlements"}, "geometry": {"type": "Point", "coordinates": [-7.3266498, 15.6113087]}}, {"type": "Feature", "properties": {"name": null, "place": "village", "osm_layer": "settlements"}, "geometry": {"type": "Point", "coordinates": [-7.3072092, 15.6292461]}}, {"type": "Feature", "properties": {"name": null, "place": "village", "osm_layer": "settlements"}, "geometry": {"type": "Point", "coordinates": [-7.4340777, 15.525723]}}, {"type": "Feature", "properties": {"name": null, "place": "village", "osm_layer": "settlements"}, "geometry": {"type": "Point", "coordinates": [-7.4302003, 15.4964791]}}, {"type": "Feature", "properties": {"name": null, "place": "village", "osm_layer": "settlements"}, "geometry": {"type": "Point", "coordinates": [-7.4944059, 15.5340237]}}, {"type": "Feature", "properties": {"name": null, "place": "village", "osm_layer": "settlements"}, "geometry": {"type": "Point", "coordinates": [-7.487813, 15.5878772]}}, {"type": "Feature", "properties": {"name": null, "place": "village", "osm_layer": "settlements"}, "geometry": {"type": "Point", "coordinates": [-7.4521879, 15.5181145]}}, {"type": "Feature", "properties": {"name": null, "place": "village", "osm_layer": "settlements"}, "geometry": {"type": "Point", "coordinates": [-7.4497632, 15.5233971]}}, {"type": "Feature", "properties": {"name": "\u062f\u0648\u0627\u0643\u0627\u0645\u0627\u0631\u0627", "place": "village", "osm_layer": "settlements"}, "geometry": {"type": "Point", "coordinates": [-5.5112127, 15.5230042]}}, {"type": "Feature", "properties": {"name": null, "place": "village", "osm_layer": "settlements"}, "geometry": {"type": "Point", "coordinates": [-5.6997404, 16.3367238]}}, {"type": "Feature", "properties": {"name": "\u0641\u0635\u0627\u0644\u0629", "place": "town", "osm_layer": "settlements"}, "geometry": {"type": "Point", "coordinates": [-5.5199613, 15.5567442]}}, {"type": "Feature", "properties": {"name": null, "place": "hamlet", "osm_layer": "settlements"}, "geometry": {"type": "Point", "coordinates": [-6.3925257, 16.8108391]}}, {"type": "Feature", "properties": {"name": "Bassikounou \u0628\u0627\u0633\u0643\u0646\u0648", "place": "city", "osm_layer": "settlements"}, "geometry": {"type": "Point", "coordinates": [-5.9488454, 15.8649341]}}, {"type": "Feature", "properties": {"name": null, "place": "village", "osm_layer": "settlements"}, "geometry": {"type": "Point", "coordinates": [-5.8558264, 15.6849324]}}, {"type": "Feature", "properties": {"name": null, "place": "village", "osm_layer": "settlements"}, "geometry": {"type": "Point", "coordinates": [-5.8020524, 15.6508211]}}, {"type": "Feature", "properties": {"name": "\u0643\u0648\u0633\u0627\u0646\u0627", "place": "village", "osm_layer": "settlements"}, "geometry": {"type": "Point", "coordinates": [-5.7420139, 15.6251995]}}, {"type": "Feature", "properties": {"name": "Terb\u00e9kou", "place": "village", "osm_layer": "settlements"}, "geometry": {"type": "Point", "coordinates": [-5.6508348, 15.654393]}}, {"type": "Feature", "properties": {"name": "Mansour", "place": "village", "osm_layer": "settlements"}, "geometry": {"type": "Point", "coordinates": [-5.6698152, 15.6265841]}}, {"type": "Feature", "properties": {"name": null, "place": "village", "osm_layer": "settlements"}, "geometry": {"type": "Point", "coordinates": [-6.8719545, 16.1594809]}}, {"type": "Feature", "properties": {"name": null, "place": "hamlet", "osm_layer": "settlements"}, "geometry": {"type": "Point", "coordinates": [-6.3772603, 16.8549838]}}, {"type": "Feature", "properties": {"name": null, "place": "hamlet", "osm_layer": "settlements"}, "geometry": {"type": "Point", "coordinates": [-7.9736916, 15.5237594]}}, {"type": "Feature", "properties": {"name": null, "place": "hamlet", "osm_layer": "settlements"}, "geometry": {"type": "Point", "coordinates": [-8.0226585, 15.5264063]}}, {"type": "Feature", "properties": {"name": "A\u00efm\u00e9 Msira \u0623\u064a\u0645\u064a \u0627\u0645\u0633\u064a\u0631\u0627", "place": "village", "osm_layer": "settlements"}, "geometry": {"type": "Point", "coordinates": [-9.3116125, 15.7360724]}}, {"type": "Feature", "properties": {"name": "N'Bouei", "place": "village", "osm_layer": "settlements"}, "geometry": {"type": "Point", "coordinates": [-9.3522425, 15.4547561]}}, {"type": "Feature", "properties": {"name": null, "place": "hamlet", "osm_layer": "settlements"}, "geometry": {"type": "Point", "coordinates": [-10.8401746, 15.3037237]}}, {"type": "Feature", "properties": {"name": null, "place": "village", "osm_layer": "settlements"}, "geometry": {"type": "Point", "coordinates": [-10.811534, 15.4186602]}}, {"type": "Feature", "properties": {"name": null, "place": "hamlet", "osm_layer": "settlements"}, "geometry": {"type": "Point", "coordinates": [-10.7663709, 15.3244659]}}, {"type": "Feature", "properties": {"name": null, "place": "village", "osm_layer": "settlements"}, "geometry": {"type": "Point", "coordinates": [-10.7934934, 15.2903168]}}, {"type": "Feature", "properties": {"name": "Tanaha", "place": "village", "osm_layer": "settlements"}, "geometry": {"type": "Point", "coordinates": [-10.901506, 15.1213469]}}, {"type": "Feature", "properties": {"name": null, "place": "village", "osm_layer": "settlements"}, "geometry": {"type": "Point", "coordinates": [-10.8991237, 15.2053911]}}, {"type": "Feature", "properties": {"name": "Kardidi", "place": "village", "osm_layer": "settlements"}, "geometry": {"type": "Point", "coordinates": [-10.9705547, 15.1826339]}}, {"type": "Feature", "properties": {"name": "Sani \u0633\u0627\u0646\u064a", "place": "village", "osm_layer": "settlements"}, "geometry": {"type": "Point", "coordinates": [-11.5889007, 16.0831568]}}, {"type": "Feature", "properties": {"name": null, "place": "village", "osm_layer": "settlements"}, "geometry": {"type": "Point", "coordinates": [-11.6103166, 16.0561245]}}, {"type": "Feature", "properties": {"name": null, "place": "village", "osm_layer": "settlements"}, "geometry": {"type": "Point", "coordinates": [-10.6672425, 15.429284]}}, {"type": "Feature", "properties": {"name": null, "place": "village", "osm_layer": "settlements"}, "geometry": {"type": "Point", "coordinates": [-9.9660807, 15.3895988]}}, {"type": "Feature", "properties": {"name": "\u0643\u0648\u0646\u062f\u0648\u0631\u0644", "place": "village", "osm_layer": "settlements"}, "geometry": {"type": "Point", "coordinates": [-5.6398876, 15.5502589]}}, {"type": "Feature", "properties": {"name": "Agh\u00f4r", "place": "village", "osm_layer": "settlements"}, "geometry": {"type": "Point", "coordinates": [-5.6891372, 16.0382345]}}, {"type": "Feature", "properties": {"name": "N\u00e9ma \u0627\u0644\u0646\u0639\u0645\u0629", "place": "city", "osm_layer": "settlements"}, "geometry": {"type": "Point", "coordinates": [-7.2663798, 16.6173344]}}, {"type": "Feature", "properties": {"name": null, "place": "hamlet", "osm_layer": "settlements"}, "geometry": {"type": "Point", "coordinates": [-7.4018826, 15.5169262]}}, {"type": "Feature", "properties": {"name": "Kankossa \u0643\u0646\u0643\u0648\u0635\u0647", "place": "city", "osm_layer": "settlements"}, "geometry": {"type": "Point", "coordinates": [-11.5238602, 15.9297509]}}, {"type": "Feature", "properties": {"name": null, "place": "hamlet", "osm_layer": "settlements"}, "geometry": {"type": "Point", "coordinates": [-9.0332515, 15.6805596]}}, {"type": "Feature", "properties": {"name": null, "place": "hamlet", "osm_layer": "settlements"}, "geometry": {"type": "Point", "coordinates": [-9.1296699, 15.5953541]}}, {"type": "Feature", "properties": {"name": null, "place": "hamlet", "osm_layer": "settlements"}, "geometry": {"type": "Point", "coordinates": [-9.0606959, 15.6030836]}}, {"type": "Feature", "properties": {"name": null, "place": "village", "osm_layer": "settlements"}, "geometry": {"type": "Point", "coordinates": [-15.0549147, 16.6815569]}}, {"type": "Feature", "properties": {"name": "Keur Kour\u00e9 \u0643\u0648\u0631 \u0643\u0648\u0631\u064a", "place": "village", "osm_layer": "settlements"}, "geometry": {"type": "Point", "coordinates": [-15.5409977, 16.5955218]}}, {"type": "Feature", "properties": {"name": "Mbera \u0645\u0628\u0631\u0627", "place": "town", "osm_layer": "settlements"}, "geometry": {"type": "Point", "coordinates": [-5.7924989, 15.8552905]}}, {"type": "Feature", "properties": {"name": "Hassi Ehel Bati", "place": "village", "osm_layer": "settlements"}, "geometry": {"type": "Point", "coordinates": [-5.6971473, 15.792862]}}, {"type": "Feature", "properties": {"name": "Saramassa", "place": "village", "osm_layer": "settlements"}, "geometry": {"type": "Point", "coordinates": [-5.7499278, 15.7997731]}}, {"type": "Feature", "properties": {"name": null, "place": "hamlet", "osm_layer": "settlements"}, "geometry": {"type": "Point", "coordinates": [-5.501662, 15.8521029]}}, {"type": "Feature", "properties": {"name": "Metrewagh", "place": "village", "osm_layer": "settlements"}, "geometry": {"type": "Point", "coordinates": [-5.6987942, 15.766093]}}, {"type": "Feature", "properties": {"name": null, "place": "hamlet", "osm_layer": "settlements"}, "geometry": {"type": "Point", "coordinates": [-5.5712246, 15.8460601]}}, {"type": "Feature", "properties": {"name": "Kourouma", "place": "hamlet", "osm_layer": "settlements"}, "geometry": {"type": "Point", "coordinates": [-7.55, 17.35]}}, {"type": "Feature", "properties": {"name": "S\u00e9rotandi", "place": "hamlet", "osm_layer": "settlements"}, "geometry": {"type": "Point", "coordinates": [-11.016667, 17.883333]}}, {"type": "Feature", "properties": {"name": "Tiour\u00e9bougou", "place": "hamlet", "osm_layer": "settlements"}, "geometry": {"type": "Point", "coordinates": [-7.6, 17.466667]}}, {"type": "Feature", "properties": {"name": null, "place": "hamlet", "osm_layer": "settlements"}, "geometry": {"type": "Point", "coordinates": [-9.7075558, 15.4189527]}}, {"type": "Feature", "properties": {"name": null, "place": "hamlet", "osm_layer": "settlements"}, "geometry": {"type": "Point", "coordinates": [-9.6721859, 15.420799]}}, {"type": "Feature", "properties": {"name": "El-Gaoussa", "place": "village", "osm_layer": "settlements"}, "geometry": {"type": "Point", "coordinates": [-9.5644783, 15.4299476]}}, {"type": "Feature", "properties": {"name": "S\u00e9n\u00e9wali Peulh I", "place": "hamlet", "osm_layer": "settlements"}, "geometry": {"type": "Point", "coordinates": [-9.4044285, 15.4560378]}}, {"type": "Feature", "properties": {"name": null, "place": "hamlet", "osm_layer": "settlements"}, "geometry": {"type": "Point", "coordinates": [-9.4043493, 15.5933143]}}, {"type": "Feature", "properties": {"name": "Labidi", "place": "village", "osm_layer": "settlements"}, "geometry": {"type": "Point", "coordinates": [-9.3598038, 15.6354765]}}, {"type": "Feature", "properties": {"name": null, "place": "hamlet", "osm_layer": "settlements"}, "geometry": {"type": "Point", "coordinates": [-9.3076528, 15.6859089]}}, {"type": "Feature", "properties": {"name": null, "place": "village", "osm_layer": "settlements"}, "geometry": {"type": "Point", "coordinates": [-9.9248536, 15.3781974]}}, {"type": "Feature", "properties": {"name": null, "place": "village", "osm_layer": "settlements"}, "geometry": {"type": "Point", "coordinates": [-9.8935537, 15.3925009]}}, {"type": "Feature", "properties": {"name": null, "place": "village", "osm_layer": "settlements"}, "geometry": {"type": "Point", "coordinates": [-9.8903836, 15.4008465]}}, {"type": "Feature", "properties": {"name": "Gogui", "place": "town", "osm_layer": "settlements"}, "geometry": {"type": "Point", "coordinates": [-9.3290875, 15.6860717]}}, {"type": "Feature", "properties": {"name": "Ould Yeng\u00e9 \u0648\u0644\u062f \u064a\u064a\u0646\u0643\u064a", "place": "town", "osm_layer": "settlements"}, "geometry": {"type": "Point", "coordinates": [-11.7154559, 15.5436853]}}, {"type": "Feature", "properties": {"name": null, "place": "hamlet", "osm_layer": "settlements"}, "geometry": {"type": "Point", "coordinates": [-11.647685, 15.5196449]}}, {"type": "Feature", "properties": {"name": null, "place": "hamlet", "osm_layer": "settlements"}, "geometry": {"type": "Point", "coordinates": [-11.6513757, 15.5180115]}}, {"type": "Feature", "properties": {"name": "Tichy Ambidedi", "place": "town", "osm_layer": "settlements"}, "geometry": {"type": "Point", "coordinates": [-11.7936828, 14.9925772]}}, {"type": "Feature", "properties": {"name": "Sansangue", "place": "village", "osm_layer": "settlements"}, "geometry": {"type": "Point", "coordinates": [-11.9544973, 14.7699058]}}, {"type": "Feature", "properties": {"name": "Melga", "place": "village", "osm_layer": "settlements"}, "geometry": {"type": "Point", "coordinates": [-11.8036273, 14.9063672]}}, {"type": "Feature", "properties": {"name": "El Verdouss \u0627\u0644\u0641\u0631\u062f\u0648\u0633", "place": "hamlet", "osm_layer": "settlements"}, "geometry": {"type": "Point", "coordinates": [-14.9587396, 17.7253696]}}, {"type": "Feature", "properties": {"name": "Tivikin \u062a\u064a\u0641\u064a\u0643\u064a\u0646", "place": "hamlet", "osm_layer": "settlements"}, "geometry": {"type": "Point", "coordinates": [-14.8962018, 17.6878401]}}, {"type": "Feature", "properties": {"name": "Enaim \u0627\u0644\u0646\u0627\u0639\u0645", "place": "hamlet", "osm_layer": "settlements"}, "geometry": {"type": "Point", "coordinates": [-14.9771943, 17.7334428]}}, {"type": "Feature", "properties": {"name": "Tenghadi \u062a\u0646\u063a\u0627\u062f\u064a", "place": "village", "osm_layer": "settlements"}, "geometry": {"type": "Point", "coordinates": [-15.0080708, 17.7501409]}}, {"type": "Feature", "properties": {"name": "Bir El Kheir \u0628\u0626\u0631 \u0627\u0644\u062e\u064a\u0631", "place": "village", "osm_layer": "settlements"}, "geometry": {"type": "Point", "coordinates": [-14.8751827, 17.6742006]}}, {"type": "Feature", "properties": {"name": "El Miad \u0627\u0644\u0645\u064a\u0639\u0627\u062f", "place": "hamlet", "osm_layer": "settlements"}, "geometry": {"type": "Point", "coordinates": [-14.9345783, 17.7009239]}}, {"type": "Feature", "properties": {"name": "El Metiasser \u0627\u0644\u0645\u062a\u064a\u0627\u0633\u0631", "place": "hamlet", "osm_layer": "settlements"}, "geometry": {"type": "Point", "coordinates": [-14.9090903, 17.6922129]}}, {"type": "Feature", "properties": {"name": "Idini \u0625\u062f\u064a\u0646\u064a", "place": "village", "osm_layer": "settlements"}, "geometry": {"type": "Point", "coordinates": [-15.4643672, 17.944425]}}, {"type": "Feature", "properties": {"name": "Tenadi 2 \u062a\u0646\u0627\u062f", "place": "hamlet", "osm_layer": "settlements"}, "geometry": {"type": "Point", "coordinates": [-15.159842, 17.8292523]}}, {"type": "Feature", "properties": {"name": null, "place": "hamlet", "osm_layer": "settlements"}, "geometry": {"type": "Point", "coordinates": [-15.1883593, 17.8432444]}}, {"type": "Feature", "properties": {"name": null, "place": "hamlet", "osm_layer": "settlements"}, "geometry": {"type": "Point", "coordinates": [-15.5040231, 17.9565698]}}, {"type": "Feature", "properties": {"name": null, "place": "hamlet", "osm_layer": "settlements"}, "geometry": {"type": "Point", "coordinates": [-15.2121558, 17.8515563]}}, {"type": "Feature", "properties": {"name": null, "place": "hamlet", "osm_layer": "settlements"}, "geometry": {"type": "Point", "coordinates": [-16.0268633, 17.1928444]}}, {"type": "Feature", "properties": {"name": null, "place": "hamlet", "osm_layer": "settlements"}, "geometry": {"type": "Point", "coordinates": [-16.0342289, 17.1863205]}}, {"type": "Feature", "properties": {"name": null, "place": "hamlet", "osm_layer": "settlements"}, "geometry": {"type": "Point", "coordinates": [-16.0606366, 16.70448]}}, {"type": "Feature", "properties": {"name": null, "place": "hamlet", "osm_layer": "settlements"}, "geometry": {"type": "Point", "coordinates": [-16.0661941, 16.7128641]}}, {"type": "Feature", "properties": {"name": "Hamoud \u062d\u0645\u0648\u062f", "place": "village", "osm_layer": "settlements"}, "geometry": {"type": "Point", "coordinates": [-11.5151891, 15.6164296]}}, {"type": "Feature", "properties": {"name": "Ennayemate \u0627\u0644\u0646\u0639\u064a\u0645\u0627\u062a", "place": "village", "osm_layer": "settlements"}, "geometry": {"type": "Point", "coordinates": [-15.3646633, 16.9482217]}}, {"type": "Feature", "properties": {"name": "Taguilalet \u0627\u062a\u0643\u0644\u0627\u0644\u062a", "place": "village", "osm_layer": "settlements"}, "geometry": {"type": "Point", "coordinates": [-15.519526, 17.0421022]}}, {"type": "Feature", "properties": {"name": null, "place": "village", "osm_layer": "settlements"}, "geometry": {"type": "Point", "coordinates": [-7.7244473, 16.3081246]}}, {"type": "Feature", "properties": {"name": "Oasis Lagueila", "place": "hamlet", "osm_layer": "settlements"}, "geometry": {"type": "Point", "coordinates": [-12.4003708, 20.3752673]}}, {"type": "Feature", "properties": {"name": "Mha\u00efreth \u0623\u0645\u062d\u064a\u0631\u062b", "place": "village", "osm_layer": "settlements"}, "geometry": {"type": "Point", "coordinates": [-13.0044916, 20.2782543]}}, {"type": "Feature", "properties": {"name": "Meddah \u0645\u062f\u0627\u062d", "place": "village", "osm_layer": "settlements"}, "geometry": {"type": "Point", "coordinates": [-13.3258249, 19.9196424]}}, {"type": "Feature", "properties": {"name": "Walald\u00e9", "place": "village", "osm_layer": "settlements"}, "geometry": {"type": "Point", "coordinates": [-14.2035394, 16.5087794]}}, {"type": "Feature", "properties": {"name": "Diama", "place": "village", "osm_layer": "settlements"}, "geometry": {"type": "Point", "coordinates": [-16.4035517, 16.2085673]}}, {"type": "Feature", "properties": {"name": "Ronkh", "place": "village", "osm_layer": "settlements"}, "geometry": {"type": "Point", "coordinates": [-15.9885161, 16.4793024]}}, {"type": "Feature", "properties": {"name": "Terjit", "place": "village", "osm_layer": "settlements"}, "geometry": {"type": "Point", "coordinates": [-13.0964547, 20.2581626]}}, {"type": "Feature", "properties": {"name": "Aguelt-en-Nemadi", "place": "hamlet", "osm_layer": "settlements"}, "geometry": {"type": "Point", "coordinates": [-11.0153533, 19.7650686]}}, {"type": "Feature", "properties": {"name": "Tichitt \u062a\u064a\u0634\u064a\u062a", "place": "city", "osm_layer": "settlements"}, "geometry": {"type": "Point", "coordinates": [-9.493115, 18.444062]}}, {"type": "Feature", "properties": {"name": "Oualata \u0648\u0644\u0627\u062a\u0629", "place": "city", "osm_layer": "settlements"}, "geometry": {"type": "Point", "coordinates": [-7.0258082, 17.3004736]}}, {"type": "Feature", "properties": {"name": "Foum Gleita \u0641\u0648\u0645 \u063a\u0644\u064a\u062a\u0627", "place": "town", "osm_layer": "settlements"}, "geometry": {"type": "Point", "coordinates": [-12.7422872, 16.0895861]}}, {"type": "Feature", "properties": {"name": "El Kse\u00efba \u0627\u0644\u0642\u0635\u064a\u0628\u0629", "place": "town", "osm_layer": "settlements"}, "geometry": {"type": "Point", "coordinates": [-13.1449596, 16.2168413]}}, {"type": "Feature", "properties": {"name": "M'Bout \u0627\u0645\u0628\u0648\u062a", "place": "city", "osm_layer": "settlements"}, "geometry": {"type": "Point", "coordinates": [-12.5797203, 16.0224777]}}, {"type": "Feature", "properties": {"name": "Ajar Sarakole", "place": "village", "osm_layer": "settlements"}, "geometry": {"type": "Point", "coordinates": [-12.4668287, 15.5180021]}}, {"type": "Feature", "properties": {"name": "Boudama Peul", "place": "village", "osm_layer": "settlements"}, "geometry": {"type": "Point", "coordinates": [-12.4186861, 15.7096308]}}, {"type": "Feature", "properties": {"name": "Djajibine", "place": "village", "osm_layer": "settlements"}, "geometry": {"type": "Point", "coordinates": [-12.4825993, 15.7483117]}}, {"type": "Feature", "properties": {"name": "Ain Ben Tili \u0639\u064a\u0646 \u0628\u0646 \u062a\u064a\u0644\u064a", "place": "hamlet", "osm_layer": "settlements"}, "geometry": {"type": "Point", "coordinates": [-9.5533743, 25.9945232]}}, {"type": "Feature", "properties": {"name": "Dj\u00e9gani\u00e2\u00ef", "place": "village", "osm_layer": "settlements"}, "geometry": {"type": "Point", "coordinates": [-7.2617802, 16.325977]}}, {"type": "Feature", "properties": {"name": "El Mabro\u00fbk", "place": "village", "osm_layer": "settlements"}, "geometry": {"type": "Point", "coordinates": [-7.3695831, 16.3895566]}}, {"type": "Feature", "properties": {"name": null, "place": "village", "osm_layer": "settlements"}, "geometry": {"type": "Point", "coordinates": [-5.6617991, 15.7123119]}}, {"type": "Feature", "properties": {"name": "Mbentiye", "place": "village", "osm_layer": "settlements"}, "geometry": {"type": "Point", "coordinates": [-5.6500194, 15.6865824]}}, {"type": "Feature", "properties": {"name": null, "place": "village", "osm_layer": "settlements"}, "geometry": {"type": "Point", "coordinates": [-7.5465874, 16.5292636]}}, {"type": "Feature", "properties": {"name": null, "place": "hamlet", "osm_layer": "settlements"}, "geometry": {"type": "Point", "coordinates": [-7.1774411, 16.7086507]}}, {"type": "Feature", "properties": {"name": null, "place": "hamlet", "osm_layer": "settlements"}, "geometry": {"type": "Point", "coordinates": [-8.4393022, 16.4076852]}}, {"type": "Feature", "properties": {"name": null, "place": "hamlet", "osm_layer": "settlements"}, "geometry": {"type": "Point", "coordinates": [-7.5005714, 16.5513756]}}, {"type": "Feature", "properties": {"name": null, "place": "village", "osm_layer": "settlements"}, "geometry": {"type": "Point", "coordinates": [-7.8143678, 16.4296243]}}, {"type": "Feature", "properties": {"name": null, "place": "village", "osm_layer": "settlements"}, "geometry": {"type": "Point", "coordinates": [-14.0274606, 21.191516]}}, {"type": "Feature", "properties": {"name": "Tmeimichat \u0627\u062a\u0645\u064a\u0645\u0634\u0627\u062a", "place": "village", "osm_layer": "settlements"}, "geometry": {"type": "Point", "coordinates": [-14.3918118, 21.2378427]}}, {"type": "Feature", "properties": {"name": "Ben Amera \u0628\u0646 \u0623\u0645\u064a\u0631\u0629", "place": "village", "osm_layer": "settlements"}, "geometry": {"type": "Point", "coordinates": [-13.6758903, 21.1994595]}}, {"type": "Feature", "properties": {"name": null, "place": "hamlet", "osm_layer": "settlements"}, "geometry": {"type": "Point", "coordinates": [-11.4426667, 15.8855387]}}, {"type": "Feature", "properties": {"name": null, "place": "village", "osm_layer": "settlements"}, "geometry": {"type": "Point", "coordinates": [-11.4865905, 15.7480414]}}, {"type": "Feature", "properties": {"name": null, "place": "village", "osm_layer": "settlements"}, "geometry": {"type": "Point", "coordinates": [-11.3267394, 15.8277641]}}, {"type": "Feature", "properties": {"name": null, "place": "hamlet", "osm_layer": "settlements"}, "geometry": {"type": "Point", "coordinates": [-11.5034522, 15.7402038]}}, {"type": "Feature", "properties": {"name": "Garalla", "place": "village", "osm_layer": "settlements"}, "geometry": {"type": "Point", "coordinates": [-11.498242, 15.7606792]}}, {"type": "Feature", "properties": {"name": null, "place": "village", "osm_layer": "settlements"}, "geometry": {"type": "Point", "coordinates": [-11.3045892, 15.8004805]}}, {"type": "Feature", "properties": {"name": null, "place": "village", "osm_layer": "settlements"}, "geometry": {"type": "Point", "coordinates": [-11.5076201, 15.7672781]}}, {"type": "Feature", "properties": {"name": null, "place": "village", "osm_layer": "settlements"}, "geometry": {"type": "Point", "coordinates": [-11.5168362, 15.7360731]}}, {"type": "Feature", "properties": {"name": null, "place": "town", "osm_layer": "settlements"}, "geometry": {"type": "Point", "coordinates": [-11.5053834, 15.7471637]}}, {"type": "Feature", "properties": {"name": null, "place": "village", "osm_layer": "settlements"}, "geometry": {"type": "Point", "coordinates": [-11.4924055, 15.7541131]}}, {"type": "Feature", "properties": {"name": null, "place": "hamlet", "osm_layer": "settlements"}, "geometry": {"type": "Point", "coordinates": [-11.512856, 15.7360266]}}, {"type": "Feature", "properties": {"name": null, "place": "town", "osm_layer": "settlements"}, "geometry": {"type": "Point", "coordinates": [-11.2578222, 15.715212]}}, {"type": "Feature", "properties": {"name": null, "place": "village", "osm_layer": "settlements"}, "geometry": {"type": "Point", "coordinates": [-11.6053491, 15.7701691]}}, {"type": "Feature", "properties": {"name": null, "place": "hamlet", "osm_layer": "settlements"}, "geometry": {"type": "Point", "coordinates": [-11.4316724, 15.8605249]}}, {"type": "Feature", "properties": {"name": null, "place": "hamlet", "osm_layer": "settlements"}, "geometry": {"type": "Point", "coordinates": [-11.4988955, 15.8705447]}}, {"type": "Feature", "properties": {"name": null, "place": "hamlet", "osm_layer": "settlements"}, "geometry": {"type": "Point", "coordinates": [-11.4669821, 15.8746437]}}, {"type": "Feature", "properties": {"name": null, "place": "hamlet", "osm_layer": "settlements"}, "geometry": {"type": "Point", "coordinates": [-11.491587, 15.8762211]}}, {"type": "Feature", "properties": {"name": "Sed Loueid", "place": "village", "osm_layer": "settlements"}, "geometry": {"type": "Point", "coordinates": [-11.5050909, 15.8793897]}}, {"type": "Feature", "properties": {"name": "Talhaya \u062a\u0627\u0644\u0647\u0627\u064a\u0627", "place": "village", "osm_layer": "settlements"}, "geometry": {"type": "Point", "coordinates": [-11.4994137, 16.0295116]}}, {"type": "Feature", "properties": {"name": null, "place": "hamlet", "osm_layer": "settlements"}, "geometry": {"type": "Point", "coordinates": [-11.4950095, 15.8769125]}}, {"type": "Feature", "properties": {"name": null, "place": "hamlet", "osm_layer": "settlements"}, "geometry": {"type": "Point", "coordinates": [-5.3961315, 16.1893501]}}, {"type": "Feature", "properties": {"name": null, "place": "hamlet", "osm_layer": "settlements"}, "geometry": {"type": "Point", "coordinates": [-5.5004373, 16.3355021]}}, {"type": "Feature", "properties": {"name": "Cansado \u0643\u0627\u0646\u0635\u0627\u062f\u0648", "place": "town", "osm_layer": "settlements"}, "geometry": {"type": "Point", "coordinates": [-17.0343496, 20.8528061]}}, {"type": "Feature", "properties": {"name": "Boulenouar \u0628\u0648\u0644\u0646\u0648\u0627\u0631", "place": "town", "osm_layer": "settlements"}, "geometry": {"type": "Point", "coordinates": [-16.5238224, 21.2915379]}}, {"type": "Feature", "properties": {"name": "Oum Gredat \u0623\u0645 \u063a\u0631\u064a\u062f\u0627\u062a", "place": "village", "osm_layer": "settlements"}, "geometry": {"type": "Point", "coordinates": [-15.3197653, 21.2856977]}}, {"type": "Feature", "properties": {"name": "Inal \u0625\u0646\u0627\u0644", "place": "town", "osm_layer": "settlements"}, "geometry": {"type": "Point", "coordinates": [-14.9947378, 21.2863871]}}, {"type": "Feature", "properties": {"name": "Cho\u00fbm \u0634\u0648\u0645", "place": "town", "osm_layer": "settlements"}, "geometry": {"type": "Point", "coordinates": [-13.0671975, 21.2986843]}}, {"type": "Feature", "properties": {"name": "Tou\u00e2j\u00eel \u0627\u062a\u0648\u0627\u062c\u064a\u0644", "place": "village", "osm_layer": "settlements"}, "geometry": {"type": "Point", "coordinates": [-12.6759818, 22.1751098]}}, {"type": "Feature", "properties": {"name": "S\u00e9libabi \u0633\u064a\u0644\u064a\u0628\u0627\u0628\u064a", "place": "city", "osm_layer": "settlements"}, "geometry": {"type": "Point", "coordinates": [-12.1847821, 15.1579884]}}, {"type": "Feature", "properties": {"name": "Tidjikja \u062a\u062c\u0643\u062c\u0629", "place": "city", "osm_layer": "settlements"}, "geometry": {"type": "Point", "coordinates": [-11.4325834, 18.5545158]}}, {"type": "Feature", "properties": {"name": null, "place": "village", "osm_layer": "settlements"}, "geometry": {"type": "Point", "coordinates": [-6.1501546, 15.8372881]}}, {"type": "Feature", "properties": {"name": null, "place": "hamlet", "osm_layer": "settlements"}, "geometry": {"type": "Point", "coordinates": [-6.062021, 15.8870678]}}, {"type": "Feature", "properties": {"name": null, "place": "hamlet", "osm_layer": "settlements"}, "geometry": {"type": "Point", "coordinates": [-6.0792241, 15.8977195]}}, {"type": "Feature", "properties": {"name": null, "place": "village", "osm_layer": "settlements"}, "geometry": {"type": "Point", "coordinates": [-6.6495711, 16.2938781]}}, {"type": "Feature", "properties": {"name": null, "place": "village", "osm_layer": "settlements"}, "geometry": {"type": "Point", "coordinates": [-14.2538546, 16.6275605]}}, {"type": "Feature", "properties": {"name": null, "place": "hamlet", "osm_layer": "settlements"}, "geometry": {"type": "Point", "coordinates": [-5.4837495, 16.120048]}}, {"type": "Feature", "properties": {"name": null, "place": "hamlet", "osm_layer": "settlements"}, "geometry": {"type": "Point", "coordinates": [-5.5635885, 16.1015657]}}, {"type": "Feature", "properties": {"name": "Waly Djahtang \u0648\u0627\u0644\u064a", "place": "village", "osm_layer": "settlements"}, "geometry": {"type": "Point", "coordinates": [-12.873682, 15.3338427]}}, {"type": "Feature", "properties": {"name": "Toulel \u062a\u0648\u0644\u0644", "place": "village", "osm_layer": "settlements"}, "geometry": {"type": "Point", "coordinates": [-12.8220672, 15.3382766]}}, {"type": "Feature", "properties": {"name": null, "place": "village", "osm_layer": "settlements"}, "geometry": {"type": "Point", "coordinates": [-8.6910014, 16.3194814]}}, {"type": "Feature", "properties": {"name": null, "place": "town", "osm_layer": "settlements"}, "geometry": {"type": "Point", "coordinates": [-8.9336426, 16.4266945]}}, {"type": "Feature", "properties": {"name": null, "place": "town", "osm_layer": "settlements"}, "geometry": {"type": "Point", "coordinates": [-8.8337174, 16.3590368]}}, {"type": "Feature", "properties": {"name": null, "place": "town", "osm_layer": "settlements"}, "geometry": {"type": "Point", "coordinates": [-8.6819784, 16.2495856]}}, {"type": "Feature", "properties": {"name": null, "place": "town", "osm_layer": "settlements"}, "geometry": {"type": "Point", "coordinates": [-8.5907955, 16.2781469]}}, {"type": "Feature", "properties": {"name": null, "place": "village", "osm_layer": "settlements"}, "geometry": {"type": "Point", "coordinates": [-12.2199852, 15.7480852]}}, {"type": "Feature", "properties": {"name": "Ajar Torobe \u0639\u062c\u0627\u0631 \u062a\u0648\u0631\u0648\u0628", "place": "village", "osm_layer": "settlements"}, "geometry": {"type": "Point", "coordinates": [-12.5309963, 15.5079928]}}, {"type": "Feature", "properties": {"name": "Maghama \u0645\u063a\u0627\u0645\u0629", "place": "city", "osm_layer": "settlements"}, "geometry": {"type": "Point", "coordinates": [-12.8502902, 15.5101724]}}, {"type": "Feature", "properties": {"name": "Zenegue Maure \u0632\u064a\u0646\u064a\u0643\u064a", "place": "village", "osm_layer": "settlements"}, "geometry": {"type": "Point", "coordinates": [-12.2728424, 15.1123087]}}, {"type": "Feature", "properties": {"name": "Amak\u00e9", "place": "village", "osm_layer": "settlements"}, "geometry": {"type": "Point", "coordinates": [-9.7713233, 15.4452876]}}, {"type": "Feature", "properties": {"name": "Gand\u00e9", "place": "village", "osm_layer": "settlements"}, "geometry": {"type": "Point", "coordinates": [-12.6566844, 15.0997572]}}, {"type": "Feature", "properties": {"name": "Birette \u0628\u0631\u062a", "place": "village", "osm_layer": "settlements"}, "geometry": {"type": "Point", "coordinates": [-16.4316835, 16.2266755]}}, {"type": "Feature", "properties": {"name": "Tekane \u062a\u064a\u0643\u0627\u0646", "place": "town", "osm_layer": "settlements"}, "geometry": {"type": "Point", "coordinates": [-15.3492673, 16.6020414]}}, {"type": "Feature", "properties": {"name": "\u0631\u0623\u0633 \u0648\u0627\u0644\u064a\u0646\u0627", "place": "hamlet", "osm_layer": "settlements"}, "geometry": {"type": "Point", "coordinates": [-17.085159, 20.9023348]}}, {"type": "Feature", "properties": {"name": "\u0631\u0623\u0633 \u0646\u0648\u0627\u0630\u064a\u0628\u0648 \u062e\u0627\u0637\u0626", "place": "hamlet", "osm_layer": "settlements"}, "geometry": {"type": "Point", "coordinates": [-17.1023135, 20.8348142]}}, {"type": "Feature", "properties": {"name": "\u0646\u0642\u0637\u0629 \u0627\u0644\u0623\u0648\u0628\u0631\u0627", "place": "hamlet", "osm_layer": "settlements"}, "geometry": {"type": "Point", "coordinates": [-17.0585352, 20.7798153]}}, {"type": "Feature", "properties": {"name": "\u0646\u0642\u0637\u0629 \u0628\u0648\u0631\u062a\u0627 \u0625\u0644\u064a\u0627", "place": "hamlet", "osm_layer": "settlements"}, "geometry": {"type": "Point", "coordinates": [-17.0644585, 20.7905266]}}, {"type": "Feature", "properties": {"name": "\u0646\u0642\u0637\u0629 \u0627\u0644\u0643\u0631\u0643\u0646\u062f", "place": "hamlet", "osm_layer": "settlements"}, "geometry": {"type": "Point", "coordinates": [-17.0713425, 20.8045582]}}, {"type": "Feature", "properties": {"name": "\u0646\u0642\u0637\u0629 \u0627\u0644\u0646\u0633\u0631", "place": "hamlet", "osm_layer": "settlements"}, "geometry": {"type": "Point", "coordinates": [-17.0774321, 20.815006]}}, {"type": "Feature", "properties": {"name": "\u0646\u0642\u0637\u0629 \u0634\u064a\u0634\u064a", "place": "hamlet", "osm_layer": "settlements"}, "geometry": {"type": "Point", "coordinates": [-17.0659959, 20.7911372]}}, {"type": "Feature", "properties": {"name": "Kobanu \u0643\u0648\u0628\u0627\u0646\u0648", "place": "village", "osm_layer": "settlements"}, "geometry": {"type": "Point", "coordinates": [-17.0059334, 21.0185352]}}, {"type": "Feature", "properties": {"name": "Waound\u00e9", "place": "town", "osm_layer": "settlements"}, "geometry": {"type": "Point", "coordinates": [-12.8677143, 15.2641251]}}, {"type": "Feature", "properties": {"name": "Aroundou", "place": "village", "osm_layer": "settlements"}, "geometry": {"type": "Point", "coordinates": [-12.2526349, 14.7638372]}}, {"type": "Feature", "properties": {"name": "Maka Diama", "place": "village", "osm_layer": "settlements"}, "geometry": {"type": "Point", "coordinates": [-16.3816183, 16.2158289]}}, {"type": "Feature", "properties": {"name": "M'billar", "place": "hamlet", "osm_layer": "settlements"}, "geometry": {"type": "Point", "coordinates": [-15.5832367, 16.5154292]}}, {"type": "Feature", "properties": {"name": "Dabb\u00e9 \u062f\u0628\u064a", "place": "village", "osm_layer": "settlements"}, "geometry": {"type": "Point", "coordinates": [-13.7972427, 16.1474902]}}, {"type": "Feature", "properties": {"name": "Bar\u00f4b\u00e9", "place": "hamlet", "osm_layer": "settlements"}, "geometry": {"type": "Point", "coordinates": [-13.8932379, 16.1817738]}}, {"type": "Feature", "properties": {"name": "Sounnatou", "place": "hamlet", "osm_layer": "settlements"}, "geometry": {"type": "Point", "coordinates": [-13.9558332, 16.2127059]}}, {"type": "Feature", "properties": {"name": "Babab\u00e9 \u0628\u0627\u0628\u0627\u0628\u0649", "place": "town", "osm_layer": "settlements"}, "geometry": {"type": "Point", "coordinates": [-13.948088, 16.3406075]}}, {"type": "Feature", "properties": {"name": "Dioude Di\u00e9ri \u062f\u064a\u0648\u062f \u062f\u064a\u0631\u064a", "place": "village", "osm_layer": "settlements"}, "geometry": {"type": "Point", "coordinates": [-13.9719257, 16.3570163]}}, {"type": "Feature", "properties": {"name": "Ha\u00efr\u00e9 Mbar \u0647\u0627\u0626\u0631\u064a \u0627\u0645\u0628\u0627\u0631", "place": "village", "osm_layer": "settlements"}, "geometry": {"type": "Point", "coordinates": [-14.0543356, 16.4153126]}}, {"type": "Feature", "properties": {"name": "Saboala \u0633\u0627\u0628\u0648\u0627\u0644\u0627", "place": "village", "osm_layer": "settlements"}, "geometry": {"type": "Point", "coordinates": [-14.0191178, 16.4132202]}}, {"type": "Feature", "properties": {"name": "Dern Wassa", "place": "hamlet", "osm_layer": "settlements"}, "geometry": {"type": "Point", "coordinates": [-14.062473, 16.3595219]}}, {"type": "Feature", "properties": {"name": "Ouro Demba Tilo", "place": "village", "osm_layer": "settlements"}, "geometry": {"type": "Point", "coordinates": [-14.0714922, 16.3231476]}}, {"type": "Feature", "properties": {"name": "Toulde Thilla", "place": "village", "osm_layer": "settlements"}, "geometry": {"type": "Point", "coordinates": [-14.1063053, 16.4203714]}}, {"type": "Feature", "properties": {"name": "Guiro", "place": "village", "osm_layer": "settlements"}, "geometry": {"type": "Point", "coordinates": [-14.1404214, 16.4468747]}}, {"type": "Feature", "properties": {"name": "Bolo Dogo \u0628\u0648\u0644\u0648 \u062f\u0648\u0643\u0648", "place": "village", "osm_layer": "settlements"}, "geometry": {"type": "Point", "coordinates": [-14.1240637, 16.4842165]}}, {"type": "Feature", "properties": {"name": "S\u00e9n\u00e9 Kouna \u0633\u064a\u0646\u064a \u0643\u0648\u0646\u0627", "place": "village", "osm_layer": "settlements"}, "geometry": {"type": "Point", "coordinates": [-14.1165535, 16.500553]}}, {"type": "Feature", "properties": {"name": "Thyli", "place": "hamlet", "osm_layer": "settlements"}, "geometry": {"type": "Point", "coordinates": [-14.1837026, 16.4851121]}}, {"type": "Feature", "properties": {"name": null, "place": "hamlet", "osm_layer": "settlements"}, "geometry": {"type": "Point", "coordinates": [-14.1924144, 16.4777767]}}, {"type": "Feature", "properties": {"name": "Danki \u062f\u0627\u0646\u0643\u064a", "place": "hamlet", "osm_layer": "settlements"}, "geometry": {"type": "Point", "coordinates": [-14.2287891, 16.5468504]}}, {"type": "Feature", "properties": {"name": "Ouissalang", "place": "hamlet", "osm_layer": "settlements"}, "geometry": {"type": "Point", "coordinates": [-14.2715895, 16.5361087]}}, {"type": "Feature", "properties": {"name": "Lopel \u0644\u0648\u0628\u0644", "place": "village", "osm_layer": "settlements"}, "geometry": {"type": "Point", "coordinates": [-14.3093121, 16.5724713]}}, {"type": "Feature", "properties": {"name": "Bidji", "place": "hamlet", "osm_layer": "settlements"}, "geometry": {"type": "Point", "coordinates": [-14.3475191, 16.6173233]}}, {"type": "Feature", "properties": {"name": "Dara", "place": "hamlet", "osm_layer": "settlements"}, "geometry": {"type": "Point", "coordinates": [-14.3804035, 16.6311391]}}, {"type": "Feature", "properties": {"name": null, "place": "village", "osm_layer": "settlements"}, "geometry": {"type": "Point", "coordinates": [-14.4065303, 16.6479719]}}, {"type": "Feature", "properties": {"name": "Ndirol \u0627\u0646\u062f\u064a\u0631\u0648\u0644", "place": "village", "osm_layer": "settlements"}, "geometry": {"type": "Point", "coordinates": [-14.4153709, 16.6524936]}}, {"type": "Feature", "properties": {"name": null, "place": "village", "osm_layer": "settlements"}, "geometry": {"type": "Point", "coordinates": [-14.4444975, 16.6773124]}}, {"type": "Feature", "properties": {"name": null, "place": "village", "osm_layer": "settlements"}, "geometry": {"type": "Point", "coordinates": [-14.4331893, 16.6654929]}}, {"type": "Feature", "properties": {"name": "Silb\u00e9", "place": "hamlet", "osm_layer": "settlements"}, "geometry": {"type": "Point", "coordinates": [-14.4826493, 16.6146081]}}, {"type": "Feature", "properties": {"name": "Serpoli", "place": "hamlet", "osm_layer": "settlements"}, "geometry": {"type": "Point", "coordinates": [-14.5623431, 16.6136006]}}, {"type": "Feature", "properties": {"name": "Garalol \u0643\u0627\u0631\u0627\u0644\u0648\u0644", "place": "village", "osm_layer": "settlements"}, "geometry": {"type": "Point", "coordinates": [-13.8973421, 16.2941907]}}, {"type": "Feature", "properties": {"name": "Haim\u00e9da \u0647\u064a\u0645\u064a\u062f\u0627", "place": "village", "osm_layer": "settlements"}, "geometry": {"type": "Point", "coordinates": [-13.8505142, 16.2343303]}}, {"type": "Feature", "properties": {"name": "Dawatel \u062f\u0648\u0627\u062a\u0644", "place": "village", "osm_layer": "settlements"}, "geometry": {"type": "Point", "coordinates": [-13.7368687, 16.1644351]}}, {"type": "Feature", "properties": {"name": "Djewol \u062c\u0648\u0644", "place": "town", "osm_layer": "settlements"}, "geometry": {"type": "Point", "coordinates": [-13.3743715, 16.0613213]}}, {"type": "Feature", "properties": {"name": "Bal\u00e8l Path\u00e9", "place": "village", "osm_layer": "settlements"}, "geometry": {"type": "Point", "coordinates": [-13.4087631, 16.0653532]}}, {"type": "Feature", "properties": {"name": "Tiaski", "place": "village", "osm_layer": "settlements"}, "geometry": {"type": "Point", "coordinates": [-13.6709346, 16.0944895]}}, {"type": "Feature", "properties": {"name": "Diol Foulb\u00e9", "place": "village", "osm_layer": "settlements"}, "geometry": {"type": "Point", "coordinates": [-13.5131574, 16.1137103]}}, {"type": "Feature", "properties": {"name": "Ndiafaf Beltyind\u00e9", "place": "village", "osm_layer": "settlements"}, "geometry": {"type": "Point", "coordinates": [-13.6341336, 16.1026584]}}, {"type": "Feature", "properties": {"name": "Adabai \u0623\u062f\u0627\u0628\u0627\u064a", "place": "village", "osm_layer": "settlements"}, "geometry": {"type": "Point", "coordinates": [-14.967769, 16.7096984]}}, {"type": "Feature", "properties": {"name": null, "place": "village", "osm_layer": "settlements"}, "geometry": {"type": "Point", "coordinates": [-14.9612136, 16.732179]}}, {"type": "Feature", "properties": {"name": "Ikrayie \u0627\u0643\u0631\u064a\u0639", "place": "village", "osm_layer": "settlements"}, "geometry": {"type": "Point", "coordinates": [-15.1476899, 16.9310067]}}, {"type": "Feature", "properties": {"name": "Bak\u00e9-Baled \u0628\u0627\u0643\u064a \u0628\u0627\u0644\u062f", "place": "village", "osm_layer": "settlements"}, "geometry": {"type": "Point", "coordinates": [-14.7634641, 16.6590791]}}, {"type": "Feature", "properties": {"name": "Wali Diala", "place": "village", "osm_layer": "settlements"}, "geometry": {"type": "Point", "coordinates": [-14.7248495, 16.6334486]}}, {"type": "Feature", "properties": {"name": "Leboudi", "place": "hamlet", "osm_layer": "settlements"}, "geometry": {"type": "Point", "coordinates": [-14.719056, 16.6377209]}}, {"type": "Feature", "properties": {"name": "Lahel", "place": "village", "osm_layer": "settlements"}, "geometry": {"type": "Point", "coordinates": [-14.6508656, 16.6350049]}}, {"type": "Feature", "properties": {"name": "Ando R\u00e9o", "place": "hamlet", "osm_layer": "settlements"}, "geometry": {"type": "Point", "coordinates": [-14.6313789, 16.6218926]}}, {"type": "Feature", "properties": {"name": "Bop Thior", "place": "village", "osm_layer": "settlements"}, "geometry": {"type": "Point", "coordinates": [-16.4933922, 16.0548173]}}, {"type": "Feature", "properties": {"name": "Ngad Ngourane", "place": "village", "osm_layer": "settlements"}, "geometry": {"type": "Point", "coordinates": [-16.4315811, 16.1837351]}}, {"type": "Feature", "properties": {"name": "D\u00e9mizine", "place": "village", "osm_layer": "settlements"}, "geometry": {"type": "Point", "coordinates": [-16.428796, 16.2000842]}}, {"type": "Feature", "properties": {"name": "Kheune", "place": "village", "osm_layer": "settlements"}, "geometry": {"type": "Point", "coordinates": [-16.1081124, 16.5223105]}}, {"type": "Feature", "properties": {"name": "Diadiam II", "place": "village", "osm_layer": "settlements"}, "geometry": {"type": "Point", "coordinates": [-16.1991199, 16.5046029]}}, {"type": "Feature", "properties": {"name": "Diadiam I", "place": "village", "osm_layer": "settlements"}, "geometry": {"type": "Point", "coordinates": [-16.1475086, 16.5318802]}}, {"type": "Feature", "properties": {"name": "Wassoul", "place": "hamlet", "osm_layer": "settlements"}, "geometry": {"type": "Point", "coordinates": [-15.935421, 16.4880762]}}, {"type": "Feature", "properties": {"name": "Gaya", "place": "hamlet", "osm_layer": "settlements"}, "geometry": {"type": "Point", "coordinates": [-15.788981, 16.4931253]}}, {"type": "Feature", "properties": {"name": "Mbarak Diaour \u0645\u0628\u0627\u0631\u0627\u0643 \u062f\u064a\u0627\u0648\u0631", "place": "village", "osm_layer": "settlements"}, "geometry": {"type": "Point", "coordinates": [-15.691597, 16.5898822]}}, {"type": "Feature", "properties": {"name": "Leourine", "place": "hamlet", "osm_layer": "settlements"}, "geometry": {"type": "Point", "coordinates": [-15.6466353, 16.582176]}}, {"type": "Feature", "properties": {"name": "Gallad\u00e9", "place": "village", "osm_layer": "settlements"}, "geometry": {"type": "Point", "coordinates": [-12.6283813, 15.0875841]}}, {"type": "Feature", "properties": {"name": "Kound\u00e9l", "place": "village", "osm_layer": "settlements"}, "geometry": {"type": "Point", "coordinates": [-13.2765479, 15.7906829]}}, {"type": "Feature", "properties": {"name": "F\u00e9lou", "place": "hamlet", "osm_layer": "settlements"}, "geometry": {"type": "Point", "coordinates": [-13.7154457, 16.1253338]}}, {"type": "Feature", "properties": {"name": null, "place": "hamlet", "osm_layer": "settlements"}, "geometry": {"type": "Point", "coordinates": [-7.589035, 16.5145793]}}, {"type": "Feature", "properties": {"name": null, "place": "hamlet", "osm_layer": "settlements"}, "geometry": {"type": "Point", "coordinates": [-7.0571855, 16.92452]}}, {"type": "Feature", "properties": {"name": "Aoujeft \u0627\u0648\u062c\u0641\u062a", "place": "city", "osm_layer": "settlements"}, "geometry": {"type": "Point", "coordinates": [-13.0547635, 20.0260444]}}, {"type": "Feature", "properties": {"name": "Tirebane \u062a\u064a\u0631\u0628\u0627\u0646", "place": "village", "osm_layer": "settlements"}, "geometry": {"type": "Point", "coordinates": [-13.0323203, 19.9616084]}}, {"type": "Feature", "properties": {"name": "Jalet Ehel Mouhameddou \u062c\u0627\u0644\u062a \u0623\u0647\u0644 \u0645\u062d\u0645\u062f", "place": "village", "osm_layer": "settlements"}, "geometry": {"type": "Point", "coordinates": [-13.036034, 19.9485713]}}, {"type": "Feature", "properties": {"name": "Tignal \u062a\u064a\u0643\u0646\u0627\u0644", "place": "village", "osm_layer": "settlements"}, "geometry": {"type": "Point", "coordinates": [-13.0395137, 19.9435485]}}, {"type": "Feature", "properties": {"name": null, "place": "village", "osm_layer": "settlements"}, "geometry": {"type": "Point", "coordinates": [-13.0554961, 19.9683772]}}, {"type": "Feature", "properties": {"name": null, "place": "hamlet", "osm_layer": "settlements"}, "geometry": {"type": "Point", "coordinates": [-11.0071645, 18.2354358]}}, {"type": "Feature", "properties": {"name": null, "place": "hamlet", "osm_layer": "settlements"}, "geometry": {"type": "Point", "coordinates": [-10.9385302, 18.2548359]}}, {"type": "Feature", "properties": {"name": null, "place": "village", "osm_layer": "settlements"}, "geometry": {"type": "Point", "coordinates": [-11.0066723, 17.0266512]}}, {"type": "Feature", "properties": {"name": null, "place": "village", "osm_layer": "settlements"}, "geometry": {"type": "Point", "coordinates": [-10.9990221, 17.0714358]}}, {"type": "Feature", "properties": {"name": null, "place": "village", "osm_layer": "settlements"}, "geometry": {"type": "Point", "coordinates": [-11.0107385, 17.0187109]}}, {"type": "Feature", "properties": {"name": null, "place": "village", "osm_layer": "settlements"}, "geometry": {"type": "Point", "coordinates": [-10.9962653, 17.0967354]}}, {"type": "Feature", "properties": {"name": null, "place": "village", "osm_layer": "settlements"}, "geometry": {"type": "Point", "coordinates": [-11.0127196, 17.0001381]}}, {"type": "Feature", "properties": {"name": null, "place": "village", "osm_layer": "settlements"}, "geometry": {"type": "Point", "coordinates": [-11.0011883, 17.0434971]}}, {"type": "Feature", "properties": {"name": null, "place": "village", "osm_layer": "settlements"}, "geometry": {"type": "Point", "coordinates": [-11.0151787, 17.047395]}}, {"type": "Feature", "properties": {"name": null, "place": "village", "osm_layer": "settlements"}, "geometry": {"type": "Point", "coordinates": [-11.5209446, 17.1020345]}}, {"type": "Feature", "properties": {"name": "Asseytine", "place": "village", "osm_layer": "settlements"}, "geometry": {"type": "Point", "coordinates": [-11.5330043, 17.1809143]}}, {"type": "Feature", "properties": {"name": "Nouamlein", "place": "village", "osm_layer": "settlements"}, "geometry": {"type": "Point", "coordinates": [-11.5105161, 17.1333899]}}, {"type": "Feature", "properties": {"name": null, "place": "village", "osm_layer": "settlements"}, "geometry": {"type": "Point", "coordinates": [-11.5763488, 17.1753997]}}, {"type": "Feature", "properties": {"name": null, "place": "village", "osm_layer": "settlements"}, "geometry": {"type": "Point", "coordinates": [-11.4578515, 16.9785323]}}, {"type": "Feature", "properties": {"name": null, "place": "hamlet", "osm_layer": "settlements"}, "geometry": {"type": "Point", "coordinates": [-11.3243611, 16.8631475]}}, {"type": "Feature", "properties": {"name": null, "place": "hamlet", "osm_layer": "settlements"}, "geometry": {"type": "Point", "coordinates": [-11.369802, 16.7463829]}}, {"type": "Feature", "properties": {"name": null, "place": "hamlet", "osm_layer": "settlements"}, "geometry": {"type": "Point", "coordinates": [-11.3338883, 16.7403387]}}, {"type": "Feature", "properties": {"name": null, "place": "hamlet", "osm_layer": "settlements"}, "geometry": {"type": "Point", "coordinates": [-11.324286, 16.851606]}}, {"type": "Feature", "properties": {"name": null, "place": "village", "osm_layer": "settlements"}, "geometry": {"type": "Point", "coordinates": [-11.2817928, 16.7723436]}}, {"type": "Feature", "properties": {"name": null, "place": "village", "osm_layer": "settlements"}, "geometry": {"type": "Point", "coordinates": [-11.1680672, 16.919849]}}, {"type": "Feature", "properties": {"name": null, "place": "village", "osm_layer": "settlements"}, "geometry": {"type": "Point", "coordinates": [-12.1700173, 17.95569]}}, {"type": "Feature", "properties": {"name": null, "place": "village", "osm_layer": "settlements"}, "geometry": {"type": "Point", "coordinates": [-12.138209, 17.9376234]}}, {"type": "Feature", "properties": {"name": "Ntitam", "place": "village", "osm_layer": "settlements"}, "geometry": {"type": "Point", "coordinates": [-12.3285026, 18.0932355]}}, {"type": "Feature", "properties": {"name": null, "place": "village", "osm_layer": "settlements"}, "geometry": {"type": "Point", "coordinates": [-12.2496897, 17.9579037]}}, {"type": "Feature", "properties": {"name": null, "place": "hamlet", "osm_layer": "settlements"}, "geometry": {"type": "Point", "coordinates": [-13.3911915, 21.2699476]}}, {"type": "Feature", "properties": {"name": null, "place": "hamlet", "osm_layer": "settlements"}, "geometry": {"type": "Point", "coordinates": [-12.7406927, 22.8088757]}}, {"type": "Feature", "properties": {"name": null, "place": "hamlet", "osm_layer": "settlements"}, "geometry": {"type": "Point", "coordinates": [-12.7328125, 22.8349365]}}, {"type": "Feature", "properties": {"name": null, "place": "hamlet", "osm_layer": "settlements"}, "geometry": {"type": "Point", "coordinates": [-12.7262384, 22.9222705]}}, {"type": "Feature", "properties": {"name": "Crampel", "place": "hamlet", "osm_layer": "settlements"}, "geometry": {"type": "Point", "coordinates": [-8.8, 24.43333]}}, {"type": "Feature", "properties": {"name": "El Mre\u00efti", "place": "village", "osm_layer": "settlements"}, "geometry": {"type": "Point", "coordinates": [-7.8425458, 23.4968854]}}, {"type": "Feature", "properties": {"name": "Chegga \u0627\u0644\u0634\u0642\u0629", "place": "village", "osm_layer": "settlements"}, "geometry": {"type": "Point", "coordinates": [-5.7865211, 25.3731899]}}, {"type": "Feature", "properties": {"name": null, "place": "hamlet", "osm_layer": "settlements"}, "geometry": {"type": "Point", "coordinates": [-14.6623305, 21.271811]}}, {"type": "Feature", "properties": {"name": null, "place": "hamlet", "osm_layer": "settlements"}, "geometry": {"type": "Point", "coordinates": [-15.7251347, 21.2891105]}}, {"type": "Feature", "properties": {"name": null, "place": "village", "osm_layer": "settlements"}, "geometry": {"type": "Point", "coordinates": [-14.1054096, 21.1944853]}}, {"type": "Feature", "properties": {"name": null, "place": "hamlet", "osm_layer": "settlements"}, "geometry": {"type": "Point", "coordinates": [-14.2075597, 21.206397]}}, {"type": "Feature", "properties": {"name": null, "place": "hamlet", "osm_layer": "settlements"}, "geometry": {"type": "Point", "coordinates": [-16.9551191, 21.214559]}}, {"type": "Feature", "properties": {"name": null, "place": "hamlet", "osm_layer": "settlements"}, "geometry": {"type": "Point", "coordinates": [-14.3561144, 21.2339791]}}, {"type": "Feature", "properties": {"name": null, "place": "hamlet", "osm_layer": "settlements"}, "geometry": {"type": "Point", "coordinates": [-13.3954885, 21.2669229]}}, {"type": "Feature", "properties": {"name": null, "place": "hamlet", "osm_layer": "settlements"}, "geometry": {"type": "Point", "coordinates": [-14.6716357, 21.2718676]}}, {"type": "Feature", "properties": {"name": null, "place": "hamlet", "osm_layer": "settlements"}, "geometry": {"type": "Point", "coordinates": [-16.7844671, 21.2781185]}}, {"type": "Feature", "properties": {"name": null, "place": "hamlet", "osm_layer": "settlements"}, "geometry": {"type": "Point", "coordinates": [-16.8924243, 21.2852924]}}, {"type": "Feature", "properties": {"name": null, "place": "hamlet", "osm_layer": "settlements"}, "geometry": {"type": "Point", "coordinates": [-16.6381915, 21.2857627]}}, {"type": "Feature", "properties": {"name": null, "place": "village", "osm_layer": "settlements"}, "geometry": {"type": "Point", "coordinates": [-15.9119069, 21.2948248]}}, {"type": "Feature", "properties": {"name": null, "place": "hamlet", "osm_layer": "settlements"}, "geometry": {"type": "Point", "coordinates": [-16.4833074, 21.2311218]}}, {"type": "Feature", "properties": {"name": null, "place": "hamlet", "osm_layer": "settlements"}, "geometry": {"type": "Point", "coordinates": [-16.5059265, 21.245074]}}, {"type": "Feature", "properties": {"name": null, "place": "village", "osm_layer": "settlements"}, "geometry": {"type": "Point", "coordinates": [-16.5299062, 21.2694752]}}, {"type": "Feature", "properties": {"name": null, "place": "hamlet", "osm_layer": "settlements"}, "geometry": {"type": "Point", "coordinates": [-15.7353774, 21.2898015]}}, {"type": "Feature", "properties": {"name": null, "place": "hamlet", "osm_layer": "settlements"}, "geometry": {"type": "Point", "coordinates": [-15.7264398, 21.2911864]}}, {"type": "Feature", "properties": {"name": null, "place": "hamlet", "osm_layer": "settlements"}, "geometry": {"type": "Point", "coordinates": [-15.6917402, 21.2922386]}}, {"type": "Feature", "properties": {"name": null, "place": "hamlet", "osm_layer": "settlements"}, "geometry": {"type": "Point", "coordinates": [-16.4840988, 21.2972824]}}, {"type": "Feature", "properties": {"name": null, "place": "hamlet", "osm_layer": "settlements"}, "geometry": {"type": "Point", "coordinates": [-16.5244782, 21.3018391]}}, {"type": "Feature", "properties": {"name": null, "place": "village", "osm_layer": "settlements"}, "geometry": {"type": "Point", "coordinates": [-12.9061172, 19.9126639]}}, {"type": "Feature", "properties": {"name": null, "place": "hamlet", "osm_layer": "settlements"}, "geometry": {"type": "Point", "coordinates": [-16.5058406, 16.0943822]}}, {"type": "Feature", "properties": {"name": "Mboyo \u0628\u0627\u064a\u0648", "place": "village", "osm_layer": "settlements"}, "geometry": {"type": "Point", "coordinates": [-16.5091959, 16.1095865]}}, {"type": "Feature", "properties": {"name": "Thiong \u062a\u064a\u0648\u0646\u063a", "place": "village", "osm_layer": "settlements"}, "geometry": {"type": "Point", "coordinates": [-16.4792477, 16.0720519]}}, {"type": "Feature", "properties": {"name": "Dios 2 \u062f\u064a\u0633", "place": "village", "osm_layer": "settlements"}, "geometry": {"type": "Point", "coordinates": [-16.4653741, 16.097683]}}, {"type": "Feature", "properties": {"name": "N'Diaos \u0646\u062f\u064a\u0627\u0648\u0633", "place": "hamlet", "osm_layer": "settlements"}, "geometry": {"type": "Point", "coordinates": [-16.4709539, 16.1136295]}}, {"type": "Feature", "properties": {"name": null, "place": "village", "osm_layer": "settlements"}, "geometry": {"type": "Point", "coordinates": [-16.491682, 16.2336045]}}, {"type": "Feature", "properties": {"name": "Dar Es Salam \u062f\u0627\u0631 \u0627\u0644\u0633\u0644\u0627\u0645", "place": "village", "osm_layer": "settlements"}, "geometry": {"type": "Point", "coordinates": [-16.4702051, 16.3051623]}}, {"type": "Feature", "properties": {"name": "Arafat \u0639\u0631\u0641\u0627\u062a", "place": "village", "osm_layer": "settlements"}, "geometry": {"type": "Point", "coordinates": [-16.4741747, 16.2974186]}}, {"type": "Feature", "properties": {"name": "Ebden \u0625\u064a\u0628\u062f\u0646", "place": "village", "osm_layer": "settlements"}, "geometry": {"type": "Point", "coordinates": [-16.4784695, 16.1974815]}},